Name,Address,BranchType,LayerType,WorkingTime,Latitude,Longitude,latitude,longitude
CN Kon Tum,"Số 1A, Đường Trần Phú, Phường Quyết Thắng, Thành phố Kon Tum, Kon Tum",Chi nhánh,Chi nhánh,"Thứ 2-6: Sáng 7h00-11h00, chiều 13h00-16h45",14.346400260925293,108.00440216064453,,
CN Ba Đình,"Số 57, Đường Láng Hạ, Phường Thành Công, Quận Ba Đình, TP Hà Nội",Chi nhánh,Chi nhánh,"Thứ 2-6: Sáng 7h30-11h30, Chiều 13h-17h00",21.01923942565918,105.81710052490234,,
CN Chợ Lớn,"Số 49, Đường Kinh Dương Vương, Phường 12, Quận 6, TP Hồ Chí Minh",Chi nhánh,Chi nhánh,"Thứ 2-6: Sáng 7h30-11h30, Chiều 13h-17h00",10.752229690551758,106.63240051269531,,
CN Bắc Hà,"Tòa nhà VP Cty 789 - Số 147, Đường Hoàng Quốc Việt, Phường Nghĩa Đô, Quận Cầu Giấy, TP Hà Nội",Chi nhánh,Chi nhánh,"Thứ 2-6: Sáng 7h30-11h30, Chiều 13h-17h00",21.046009063720703,105.79979705810547,,
CN Gia Lai,"Số 112, Đường Lê Lợi, Phường Hoa Lư, Thành phố Pleiku, Gia Lai",Chi nhánh,Chi nhánh,"Thứ 2-6: Sáng 7h30-11h30, Chiều 13h-17h00",13.985650062561035,108.0072021484375,,
CN Cầu Giấy,"Số 263, Đường Cầu Giấy, Phường Dịch Vọng, Quận Cầu Giấy, TP Hà Nội",Chi nhánh,Chi nhánh,"Thứ 2-6: Sáng 7h30-11h30, Chiều 13h-17h00",21.03430938720703,105.7957992553711,,
CN Bắc Ninh,"Số 01, Đường Nguyễn Đăng Đạo, Phường Suối Hoa, TP Bắc Ninh, Bắc Ninh",Chi nhánh,Chi nhánh,"Thứ 2-6: Sáng 7h30-11h30, Chiều 13h-17h00",21.184799194335938,106.0687026977539,,
CN Đông Sài Gòn,"Số 23A và 25, Đường Đặng Văn Bi, Phường Trường Thọ, TP. Thủ Đức, TP Hồ Chí Minh",Chi nhánh,Chi nhánh,"Thứ 2-6: Sáng 7h30-11h30, Chiều 13h00-16h30",10.840729713439941,106.76509857177734,,
CN Nam Gia Lai,"Số 117, Đường Trần Phú, Phường Diên Hồng, Thành phố Pleiku, Gia Lai",Chi nhánh,Chi nhánh,"Thứ 2-6: Sáng 7h30-11h30, Chiều 13h-17h00",13.977190017700195,107.99510192871094,,
CN Đống Đa,"Số 71, Đường Nguyễn Chí Thanh, Phường Láng Hạ, Quận Đống Đa, TP Hà Nội",Chi nhánh,Chi nhánh,"Thứ 2-6: Sáng 08h00-12h00, Chiều 13h-16h00",21.024080276489258,105.81099700927734,,
CN Đông Đô,"Số 27, Đường Trần Duy Hưng, Phường Trung Hoà, Quận Cầu Giấy, TP Hà Nội",Chi nhánh,Chi nhánh,"Thứ 2-6: Sáng 7h30-11h30, Chiều 13h-17h00",21.013690948486328,105.80339813232422,,
CN Gia Định,"Lô L1-01 Lầu 1 và Lô L3-01 Lầu 3 Trung tâm Thương mại Vincom Plaza KĐT Saigonres, số 188, Đường Nguyễn Xí, Phường 26, Quận Bình Thạnh, TP Hồ Chí Minh",Chi nhánh,Chi nhánh,"Thứ 2-6: Sáng 7h30-11h30, Chiều 13h-17h00",10.816619873046875,106.70700073242188,,
CN Đông Hà Nội,"Số 46, Đường Cao Lỗ, Tổ 2, Thị trấn Đông Anh, Huyện Đông Anh, TP Hà Nội",Chi nhánh,Chi nhánh,"Thứ 2-6: Sáng 7h30-11h30, Chiều 13h-17h00",21.140600204467773,105.847900390625,,
CN Buôn Hồ,"Số 476, Đường Hùng Vương, Phường An Bình, Buôn Hồ, Đăk Lăk",Chi nhánh,Chi nhánh,"Thứ 2-6: Sáng 7h15-11h30, Chiều 13h30-16h45",12.914649963378906,108.26570129394531,,
CN Đăk Lăk,"Số 17, Đường Nguyễn Tất Thành, Phường Tân Lợi, Thành phố Buôn Ma Thuột, Đăk Lăk",Chi nhánh,Chi nhánh,"Thứ 2-6: Sáng 7h15-11h30, Chiều 13h30-17h00",12.686079978942871,108.05339813232422,,
CN Kỳ Hoà,"Số 137C, Đường Nguyễn Chí Thanh, Phường 9, Quận 5, TP Hồ Chí Minh",Chi nhánh,Chi nhánh,"Thứ 2-6: Sáng 7h30-11h30, Chiều 13h-17h00",10.759369850158691,106.66670227050781,,
CN Gia Lâm,"Số 741, Đường Nguyễn Đức Thuận, Xã Đặng Xá, Huyện Gia Lâm, TP Hà Nội",Chi nhánh,Chi nhánh,"Thứ 2-6: Sáng 7h30-11h30, Chiều 13h-17h00",21.01667022705078,105.94499969482422,,
CN Hà Đông,"Số 197, Đường Quang Trung, Phường Quang Trung, Quận Hà Đông, TP Hà Nội",Chi nhánh,Chi nhánh,"Thứ 2-6: Sáng 8h-11h30, Chiều 13h30-16h30",20.968460083007812,105.77339935302734,,
CN Nam Sài Gòn,"Tòa nhà Vinafood 2, Số 333, Đường Trần Hưng Đạo, Phường Cầu Kho, Quận 1, TP Hồ Chí Minh",Chi nhánh,Chi nhánh,"Thứ 2-6: Sáng 7h30-11h30, Chiều 13h-17h00",10.761280059814453,106.68990325927734,,
CN Đông Đăk Lăk,"Số 55, Đường Nguyễn Tất Thành, Thị trấn EaKar, Huyện Ea Kar, Đăk Lăk",Chi nhánh,Chi nhánh,"Thứ 2-6: Sáng: 7h00 - 11h30, Chiều: 13h30-17h00",12.83141040802002,108.45700073242188,,
CN Phú Mỹ Hưng,"Số 27-29, Khu phố Kim Long, Đường Nguyễn Hữu Thọ, Xã Phước Kiển, Huyện Nhà Bè, TP Hồ Chí Minh",Chi nhánh,Chi nhánh,"Thứ 2-6: Sáng 7h30-11h30, Chiều 13h-17h00",10.721570014953613,106.70159912109375,,
CN Hà Thành,"Số 74, Phố Thợ Nhuộm, Phường Trần Hưng Đạo, Quận Hoàn Kiếm, TP Hà Nội",Chi nhánh,Chi nhánh,"Thứ 2-6: Sáng 7h30-11h30, Chiều 13h-17h00",21.024009704589844,105.84729766845703,,
CN Bảo Lộc,"Số 52, Đường Lê Thị Pha, Phường 1, Thành phố Bảo Lộc, Lâm Đồng",Chi nhánh,Chi nhánh,"Thứ 2-6: Sáng 7h30-11h30, Chiều 13h-17h00",11.546099662780762,107.80840301513672,,
CN Quận 3 Thành phố Hồ Chí Minh,"Tầng trệt, 1, 2, 3, 4 và 5, Tòa nhà Comeco, số  549 đường Điện Biên Phủ, Phường 03, Quận 3, TP Hồ Chí Minh",Chi nhánh,Chi nhánh,"Thứ 2-6: Sáng 7h30-11h30, Chiều 13h-17h00",10.770549774169922,106.6771011352539,,
CN Đà Lạt,"Số 28 Khu Hoà Bình, phường 1, Tp. Đà Lạt, tỉnh Lâm Đồng",Chi nhánh,Chi nhánh,"Thứ 2-6: Sáng 7h30-11h30, Chiều 13h-17h00",11.94340991973877,108.43579864501953,,
CN Hai Bà Trưng,"Toà nhà VCCI Tower, số 9, Đường Đào Duy Anh, Phường Phương Mai, Quận Đống Đa, TP Hà Nội",Chi nhánh,Chi nhánh,"Thứ 2-6: Sáng 7h30-11h30, Chiều 13h-17h00",21.008380889892578,105.83789825439453,,
CN Hoài Đức,"Tòa nhà CT1A, KĐT Tân Tây Đô, Xã Tân Lập, Huyện Đan Phượng, TP Hà Nội",Chi nhánh,Chi nhánh,"Thứ 2-6: Sáng 7h30-11h30, Chiều 13h-17h00",21.0733699798584,105.70179748535156,,
CN Sở Giao dịch 2,"Số 4-6, Đường Võ Văn Kiệt, Phường Nguyễn Thái Bình, Quận 1, TP Hồ Chí Minh",Chi nhánh,Chi nhánh,"Thứ 2-6: Sáng 7h30-11h30, Chiều 13h-17h00",10.770150184631348,106.7041015625,,
CN Hoàn Kiếm,"Số 194, Đường Trần Quang Khải, Phường Lý Thái Tổ, Quận Hoàn Kiếm, TP Hà Nội",Chi nhánh,Chi nhánh,"Thứ 2-6: Sáng 7h30-11h30, Chiều 13h-17h00",21.029499053955078,105.85690307617188,,
CN Bình Phước,"Số 737, Quốc lộ 14, Phường Tân Bình, Thành phố Đồng Xoài, Bình Phước",Chi nhánh,Chi nhánh,"Thứ 2-6: Sáng 7h30-11h30, Chiều 13h-17h00",11.532320022583008,106.88400268554688,,
CN Tân Bình,"Số 271-273-275, Đường Cộng Hoà, Phường 13, Quận Tân Bình, TP Hồ Chí Minh",Chi nhánh,Chi nhánh,"Thứ 2-6: Sáng 7h30-11h30, Chiều 13h-17h00",10.80189037322998,106.64440155029297,,
CN Thái Bình,"Số 80B, Đường Lý Thường Kiệt, Phường Lê Hồng Phong, TP Thái Bình, Thái Bình",Chi nhánh,Chi nhánh,"Thứ 2-6: Sáng 7h30-11h30, Chiều 13h30-16h30",20.451099395751953,106.3479995727539,,
CN Hoàng Mai Hà Nội,"Tầng 1 và tầng 2, Tòa CT4 Eco Green City, KĐT Tây Nam Kim Giang I, Xã Tân Triều, Huyện Thanh Trì, TP Hà Nội",Chi nhánh,Chi nhánh,"Thứ 2-6: Sáng 7h30-11h30, Chiều 13h-17h00",20.98358917236328,105.80870056152344,,
CN Tây Ninh,"Số 492, Đường 30/4, Khu 5, Phường 3, Thành phố Tây Ninh, Tây Ninh",Chi nhánh,Chi nhánh,"Thứ 2-6: Sáng 7h00-11h30, Chiều 13h30-16h30",11.322810173034668,106.10140228271484,,
CN Bình Dương,"Số 549, Đại lộ Bình Dương, Phường Hiệp Thành, Thành phố Thủ Dầu Một, Bình Dương",Chi nhánh,Chi nhánh,"Thứ 2-6: Sáng 7h30-11h30, Chiều 13h30-17h00",10.987669944763184,106.66470336914062,,
CN Thành phố Thủ Đức,"Một phần tòa nhà tại địa chỉ số 650-652-652A Xa Lộ Hà Nội, Khu phố 1, Phường Phước Long B, TP Thủ Đức, TP Hồ Chí Minh",Chi nhánh,Chi nhánh,"Thứ 2-6: Sáng 7h30-11h30, Chiều 13h-16h30",10.839249610900879,106.7686996459961,,
CN Long Biên Hà Nội,"Số 137A, Đường Nguyễn Văn Cừ, Phường Ngọc Lâm, Quận Long Biên, TP Hà Nội",Chi nhánh,Chi nhánh,"Thứ 2-6: Sáng 7h30-11h30, Chiều 13h-17h00",21.04258918762207,105.87059783935547,,
CN Thủ Thiêm,"Tầng trệt, tầng lửng, tầng 1, tầng 2 và tầng 3 Tòa nhà số 33-33A, Đường Trần Não, Phường An Khánh, TP Thủ Đức, TP Hồ Chí Minh",Chi nhánh,Chi nhánh,"Thứ 2-6: Sáng 7h30-11h30, Chiều 13h-17h00",10.796319961547852,106.73139953613281,,
CN TP Hồ Chí Minh,"Số 134, Đường Nguyễn Công Trứ, Phường Nguyễn Thái Bình, Quận 1, TP Hồ Chí Minh",Chi nhánh,Chi nhánh,"Thứ 2-6: Sáng 7h30-11h30, Chiều 13h-17h00",10.769309997558594,106.70159912109375,,
CN Nam Hà Nội,"Số 1281, Đường Giải Phóng, Phường Hoàng Liệt, Quận Hoàng Mai, TP Hà Nội",Chi nhánh,Chi nhánh,"Thứ 2-6: Sáng 7h30-11h30, Chiều 13h-17h00",20.970430374145508,105.84159851074219,,
CN Ngọc Khánh Hà Nội,"Tòa nhà Thái Nam Building, lô E2 đường Dương Đình Nghê, phường Yên Hòa, quận Cầu Giấy, TP Hà Nội, Yên Hòa, Quận Cầu Giấy, TP Hà Nội",Chi nhánh,Chi nhánh,"Thứ 2-6: Sáng 7h30-11h30, Chiều 13h-17h00",21.01968002319336,105.7844009399414,,
CN Trung tâm Sài Gòn,"472-472A-472C đường Nguyễn Thị Minh Khai, Phường 02, Quận 3, TP Hồ Chí Minh",Chi nhánh,Chi nhánh,"Thứ 2-6: Sáng 7h30-11h30, Chiều 13h-17h00",10.767290115356445,106.68319702148438,,
CN Quang Minh,"Km số 9, Đường Bắc Thăng Long - Nội Bài, gần KCN Quang Minh, Thị trấn Quang Minh, Huyện Mê Linh, TP Hà Nội",Chi nhánh,Chi nhánh,"Thứ 2-6: Sáng 7h30-11h30, Chiều 13h-17h00",21.191469192504883,105.78089904785156,,
CN Quang Trung,"Toà nhà Prime Center, Số 53, Phố Quang Trung, Phường Nguyễn Du, Quận Hai Bà Trưng, TP Hà Nội",Chi nhánh,Chi nhánh,"Thứ 2-6: Sáng 7h30-11h30, Chiều 13h-17h00",21.018369674682617,105.84750366210938,,
CN Thủ Dầu Một,"Số 37, Đường Yersin, Phường Phú Cường, Thành phố Thủ Dầu Một, Bình Dương",Chi nhánh,Chi nhánh,"Thứ 2-6: Sáng 7h30-11h30, Chiều 13h-17h00",10.983449935913086,106.66290283203125,,
CN Sở Giao dịch 1,"Vincom Tower, Số 191, Đường Bà Triệu, Phường Lê Đại Hành, Quận Hai Bà Trưng, TP Hà Nội",Chi nhánh,Chi nhánh,"Thứ 2-6: Sáng 7h30-11h30, Chiều 13h-17h00",21.011320114135742,105.8490982055664,,
CN Thanh Hoá,"Số 26, Đại lộ Lê Lợi, Phường Điện Biên, Thành phố Thanh Hoá, Thanh Hoá",Chi nhánh,Chi nhánh,"Thứ 2-6: Sáng 7h30-11h30, Chiều 13h30-17h00",19.807889938354492,105.77639770507812,,
CN Tuyên Quang,"Số 4, Đường Bình Thuận, Phường Minh Xuân, TP Tuyên Quang, Tỉnh Tuyên Quang",Chi nhánh,Chi nhánh,"Thứ 2-6: Sáng 7h30-12h, Chiều 13h30-17h00",21.820669174194336,105.21540069580078,,
CN Sở Giao dịch 3,"Số 20, Phố Hàng Tre, Phường Lý Thái Tổ, Quận Hoàn Kiếm, TP Hà Nội",Chi nhánh,Chi nhánh,"Thứ 2-6: Sáng 8h-11h30, Chiều 13h-16h30",21.033029556274414,105.8551025390625,,
CN Đông Đồng Nai,"Số 115B, Đường Lê Duẩn, Khu Phước Hải, Thị trấn Long Thành, Huyện Long Thành, Đồng Nai",Chi nhánh,Chi nhánh,"Thứ 2-6: Sáng 7h30-11h30, Chiều 13h-17h00",10.792880058288574,106.94619750976562,,
CN Tây Hồ,"Số 246, Đường Võ Chí Công, PhườngXuân La, Quận Tây Hồ, TP Hà Nội",Chi nhánh,Chi nhánh,"Thứ 2-6: Sáng 7h30-11h30, Chiều 13h-17h00",21.063940048217773,105.80570220947266,,
CN Đồng Nai,"Số 244, Đường Đồng Khởi, Khu 4, Phường Tân Hiệp, Thành phố Biên Hoà, Đồng Nai",Chi nhánh,Chi nhánh,"Thứ 2-6: Sáng 7h30-11h30, Chiều 13h-17h00",10.955610275268555,106.86530303955078,,
CN Nam Đồng Nai,"Lô F1, Quốc lộ 51, Phường Long Bình Tân, Thành phố Biên Hoà, Đồng Nai",Chi nhánh,Chi nhánh,"Thứ 2-6: Sáng 7h30-11h30, Chiều 13h-17h00",10.902569770812988,106.85099792480469,,
CN Thăng Long,"Số 3, Đường Phạm Hùng, Phường Mỹ Đình 2, Quận Nam Từ Liêm, TP Hà Nội",Chi nhánh,Chi nhánh,"Thứ 2-6: Sáng 7h30-11h30, Chiều 13h-17h00",21.031309127807617,105.77989959716797,,
CN Phủ Quỳ,"Số 417, Đường Trần Hưng Đạo, khối Tân Phú, Phường Hoà Hiếu, Thị xã Thái Hoà, Nghệ An",Chi nhánh,Chi nhánh,"Thứ 2-6: Sáng 7h30-11h30, Chiều 13h-17h00",19.319480895996094,105.443603515625,,
CN Thành Vinh,"Số 66, Đường Nguyễn Thị Minh Khai, Phường Hưng Bình, Thành phố Vinh, Nghệ An",Chi nhánh,Chi nhánh,"Thứ 2-6: Sáng 7h30-11h30, Chiều 13h30-17h30",18.68722915649414,105.67559814453125,,
CN Sơn La,"Số 188, Đường Tô Hiệu, Phường Tô Hiệu, TP Sơn La, Tỉnh Sơn La",Chi nhánh,Chi nhánh,"Thứ 2-6: Sáng 7h30-11h30, Chiều 13h30-16h30",21.332700729370117,103.90859985351562,,
CN Thành Đô,"Số 469, Đường Nguyễn Văn Linh, Phường Phúc Đồng, Quận Long Biên, TP Hà Nội",Chi nhánh,Chi nhánh,"Thứ 2-6: Sáng 7h30-11h30, Chiều 13h-17h00",21.032960891723633,105.90869903564453,,
CN Thanh Xuân,"Center Building, Hapulico Complex, số 1, Phố Nguyễn Huy Tưởng, Phường Thanh Xuân Trung, Quận Thanh Xuân, TP Hà Nội",Chi nhánh,Chi nhánh,"Thứ 2-6: Sáng 7h30-11h30, Chiều 13h-17h00",21.002370834350586,105.80560302734375,,
CN Nam Hà Tĩnh,"Trung tâm, Xã Kỳ Tân, Huyện Kỳ Anh, tỉnh Hà Tĩnh",Chi nhánh,Chi nhánh,"Thứ 2-6: Sáng 7h00-11h15, Chiều 14h-17h15",18.08449935913086,106.2853012084961,,
CN Hoà Bình,"Đường Lê Thánh Tông, Phường Hữu Nghị, TP Hoà Bình, Tỉnh Hoà Bình",Chi nhánh,Chi nhánh,"Thứ 2 đến thứ 6. Mùa hè: buổi sáng từ 07h00 đến 11h30, buổi chiều từ 13h30 đến 17h00. Mùa đông: buổi sáng từ 07h30 đến 11h30, buổi chiều từ 13h00 đến 17h00",20.828550338745117,105.33689880371094,,
CN Quảng Bình,"Số 189, Đường Hữu Nghị, Phường Nam Lý, Thành phố Đồng Hới, Quảng Bình",Chi nhánh,Chi nhánh,"Thứ 2-6: Sáng 7h30-11h30, Chiều 13h-17h00",17.470430374145508,106.6082992553711,,
CN Tràng Tiền - Hà Nội,"Số 41, Đường Hai Bà Trưng, Phường Trần Hưng Đạo, Quận Hoàn Kiếm, TP Hà Nội",Chi nhánh,Chi nhánh,"Thứ 2-6: Sáng 7h30-11h30, Chiều 13h-17h00",21.025569915771484,105.84860229492188,,
CN Long An,"Số 140, Đường Hùng Vương, Phường 1, TP Tân An, Tỉnh Long An",Chi nhánh,Chi nhánh,"Thứ 2-6: Sáng 7h30-11h30, Chiều 13h-17h00",10.53594970703125,106.40619659423828,,
CN Từ Liêm,"Tòa nhà Sunsquare, số 21, đường Lê Đức Thọ, Phường Mỹ Đình 2, Quận Nam Từ Liêm, TP Hà Nội",Chi nhánh,Chi nhánh,"Thứ 2-6: Sáng 8h-11h30, Chiều 13h-16h30",21.033689498901367,105.77020263671875,,
CN Quảng Trị,"Số 24, Đường Hùng Vương, Phường 1, Thành phố Đông Hà, Quảng Trị",Chi nhánh,Chi nhánh,"Thứ 2-6: Sáng 7h30-11h30, Chiều 13h-17h00",16.816190719604492,107.1001968383789,,
CN Vạn Phúc Hà Nội,"Lô số A12-LK1, ô số 01 và 02, khu A, Khu đô thị mới Lê Trọng Tấn - GELEXIMCO, Xã An Khánh, Huyện Hoài Đức, TP Hà Nội",Chi nhánh,Chi nhánh,"Thứ 2-6: Sáng 8h00-12h00, Chiều 13h30-16h30",21.0049991607666,105.73069763183594,,
CN Mộc Hoá,"Số 6, Đường 30/4, Phường 1, Thị xã Kiến Tường, Long An",Chi nhánh,Chi nhánh,"Thứ 2-6: Sáng 7h30-11h30, Chiều 13h-17h00",10.778389930725098,105.93710327148438,,
CN Phú Xuân,"Số 15A, Đường Nguyễn Huệ, Phường Vĩnh Ninh, Quận Thuận Hóa, Thành phố Huế",Chi nhánh,Chi nhánh,"Thứ 2-6: Sáng 7h30-11h30, Chiều 13h-17h00",16.458030700683594,107.5811996459961,,
CN Mỹ Tho,"Số 34-36, Đường Lê Lợi, Phường 1, Thành phố Mỹ Tho, Tiền Giang",Chi nhánh,Chi nhánh,"Thứ 2-6: Sáng 7h30-11h30, Chiều 13h-17h00",10.35990047454834,106.36730194091797,,
CN Lạng Sơn,"Số 29, Đường Lê Lợi, Phường Vĩnh Trại, Thành phố Lạng Sơn, Lạng Sơn",Chi nhánh,Chi nhánh,"Thứ 2-6: Sáng 07h30-11h00, Chiều 13h30-17h00",21.852659225463867,106.75879669189453,,
Trung tâm Khách hàng Cá nhân Cao cấp,"Số 194 đường Trần Quang Khải, Phường Lý Thái Tổ, Quận Hoàn Kiếm, TP Hà Nội",Chi nhánh,Chi nhánh,1,21.029619216918945,105.85710144042969,,
CN Bà Chiểu,"Tầng trệt tầng lửng và tầng 4, Số 153, Đường Hai Bà Trưng, Phường 6, Quận 3, TP Hồ Chí Minh",Chi nhánh,Chi nhánh,"Thứ 2-6: Sáng 7h30-11h30, Chiều 13h-17h00",10.783550262451172,106.69719696044922,,
CN Huế,"Số 41, Đường Hùng Vương, Phường Phú Hội, Quận Thuận Hóa, Thành phố Huế",Chi nhánh,Chi nhánh,"Thứ 2-6: Sáng 7h30-11h30, Chiều 13h-17h00",16.46385955810547,107.59510040283203,,
CN Ba Mươi Tháng Tư,"Một phần tầng 1 (tầng trệt) và một phần tầng 2 Tòa nhà Leman Luxury Apartments, số 117 Nguyễn Đình Chiểu, Phường Võ Thị Sáu, Quận 3, TP Hồ Chí Minh",Chi nhánh,Chi nhánh,"Thứ 2-6: Sáng 8h00-11h30, Chiều 13h-17h00",10.7777099609375,106.69000244140625,,
CN Bắc Giang,"Số 2, Đường Nguyễn Gia Thiều, Phường Trần Phú, Thành phố Bắc Giang, Bắc Giang",Chi nhánh,Chi nhánh,"Thứ 2-6: Sáng 7h30-11h30, Chiều 13h-17h00",21.277149200439453,106.19219970703125,,
CN Bắc Sài Gòn,"Số 290, Đường Nam Kỳ Khởi Nghĩa, Phường Võ Thị Sáu, Quận 3, TP Hồ Chí Minh",Chi nhánh,Chi nhánh,"Thứ 2-6: Sáng 8h-11h30, Chiều 13h-16h30",10.789830207824707,106.68409729003906,,
CN Hùng Vương,"Tòa nhà Nhà Văn Hóa Lao Động Phú Thọ, Đường Hùng Vương, Phường Tiên Cát, TP Việt Trì, Tỉnh Phú Thọ",Chi nhánh,Chi nhánh,"Thứ 2-6: Sáng 7h30-11h30, Chiều 13h-17h00",21.314109802246094,105.39399719238281,,
CN Bến Nghé,"Số 34, Đường Nguyễn Thị Diệu, Phường Võ Thị Sáu, Quận 3, TP Hồ Chí Minh",Chi nhánh,Chi nhánh,"Thứ 2-6: Sáng 7h30-11h30, Chiều 13h-16h30",10.775400161743164,106.68800354003906,,
CN Bến Thành,"Số 85, Đường Bùi Thị Xuân, Phường Phạm Ngũ Lão, Quận 1, TP Hồ Chí Minh",Chi nhánh,Chi nhánh,"Thứ 2-6: Sáng 7h30-11h30, Chiều 13h-17h00",10.768059730529785,106.68669891357422,,
CN Hội An,"Số 86, Đường Trần Hưng Đạo, Phường Cẩm Phô, Hội An, Quảng Nam",Chi nhánh,Chi nhánh,"Thứ 2-6: Sáng 7h30-11h30, Chiều 13h-17h00",15.88012981414795,108.32489776611328,,
CN Bình Điền Sài Gòn,"Tòa nhà số 230-232-234, Đường Dương Bá Trạc, Phường 2, Quận 8, TP Hồ Chí Minh",Chi nhánh,Chi nhánh,"Thứ 2-6: Sáng 7h30-11h30, Chiều 13h-17h00",10.7460298538208,106.68900299072266,,
CN Bình Hưng,"Lô S, Tòa nhà Văn phòng, khu số 9, Quốc Lộ 50, Xã Bình Hưng, Huyện Bình Chánh, TP Hồ Chí Minh",Chi nhánh,Chi nhánh,"Thứ 2-6: Sáng 7h30-11h30, Chiều 13h-17h00",10.721260070800781,106.65609741210938,,
CN Hạ Long,"Số 74, Đường Trần Hưng Đạo, Phường Trần Hưng Đạo, TP Hạ Long, Quảng Ninh",Chi nhánh,Chi nhánh,"Thứ 2-6: Sáng 7h30-11h30, Chiều 13h-17h00",20.95684051513672,107.08560180664062,,
CN Vĩnh Long,"Số 15A, Đường Lê Lợi, Phường 1, Thành phố Vĩnh Long, Vĩnh Long",Chi nhánh,Chi nhánh,"Thứ 2-6: Sáng 7h00-11h00, Chiều 13h-16h30",10.255399703979492,105.97100067138672,,
CN Bình Thạnh,"Số 11, Đường Hoàng Hoa Thám, Phường 6, Quận Bình Thạnh, Thành phố Hồ Chí Minh",Chi nhánh,Chi nhánh,"Thứ 2-6: Sáng 7h30-11h30, Chiều 13h-17h00",10.804719924926758,106.69159698486328,,
CN Dung Quất,"Thôn Trung An, Xã Bình Thạnh, Huyện Bình Sơn, Quảng Ngãi",Chi nhánh,Chi nhánh,"Thứ 2-6: Sáng 7h30-11h30, Chiều 13h-17h00",15.370450019836426,108.76249694824219,,
CN Châu Thành Sài Gòn,"Tòa nhà số 497, Đường Nguyễn Oanh, Phường 17, Quận Gò Vấp, TP Hồ Chí Minh",Chi nhánh,Chi nhánh,"Thứ 2-6: Sáng 7h30-11h30, Chiều 13h-17h00",10.847780227661133,106.67829895019531,,
CN Bình Định,"Số 72, Đường Lê Duẩn, Phường Trần Phú, TP Quy Nhơn, Tỉnh Bình Định",Chi nhánh,Chi nhánh,"Thứ 2-6: Sáng 7h30-11h30, Chiều 13h-17h00",13.767439842224121,109.22119903564453,,
CN Phúc Yên,"Đường Hai Bà Trưng, Phường Hùng Vương, TP Phúc Yên, Vĩnh Phúc",Chi nhánh,Chi nhánh,"Thứ 2-6: Sáng 7h30-11h30, Chiều 13h-17h00",21.230600357055664,105.70320129394531,,
CN Phú Tài,"Số 340 Lạc Long Quân, Phường Trần Quang Diệu, Quy Nhơn, Bình Định",Chi nhánh,Chi nhánh,"Thứ 2-6: Sáng 7h30-11h00, Chiều 13h-16h30",13.785880088806152,109.14640045166016,,
CN Bắc An Giang,"Số 14, Đường Quang Trung, Phường Châu Phú B, Thành phố Châu Đốc, An Giang",Chi nhánh,Chi nhánh,"Thứ 2-6: Sáng 7h00-11h00, Chiều 13h-16h30",10.709580421447754,105.118896484375,,
CN Đồng Bằng Sông Cửu Long,"Số 53-53A, Đường Võ Văn Tần, Phường Tân An, Quận Ninh Kiều, TP Cần Thơ",Chi nhánh,Chi nhánh,"Thứ 2-6: Sáng 7h30-11h30, Chiều 13h-17h00",10.03240966796875,105.7854995727539,,
CN Nha Trang,"Số 11, Đường Quang Trung, Phường Vạn Thạnh, Thành phố Nha Trang, Khánh Hoà",Chi nhánh,Chi nhánh,"Thứ 2-6: Sáng 7h30-11h30, Chiều 13h-17h00",12.250940322875977,109.19039916992188,,
CN Tây Đô,"Số 05, Đường Phan Đình Phùng, Phường Tân An, Quận Ninh Kiều, TP Cần Thơ",Chi nhánh,Chi nhánh,"Thứ 2-6: Sáng 7h30-11h30, Chiều 13h-17h00",10.034919738769531,105.78720092773438,,
CN Ninh Thuận,"Số 138, Đường 21/8, Phường Phước Mỹ, Thành phố Phan Rang - Tháp Chàm, Ninh Thuận",Chi nhánh,Chi nhánh,"Thứ 2-6: Sáng 7h-11h, Chiều 13h30h-17h30",11.58368968963623,108.970703125,,
CN Hậu Giang,"Số 16, Đường Nguyễn Công Trứ, Phường 1, Thành phố Vị Thanh, Hậu Giang",Chi nhánh,Chi nhánh,"Thứ 2-6: Sáng 7h30-11h30, Chiều 13h-17h00",9.779173851013184,105.46690368652344,,
CN Sóc Trăng,"Số 05, Đường Trần Hưng Đạo, Phường 3, Thành phố Sóc Trăng, Sóc Trăng",Chi nhánh,Chi nhánh,"Thứ 2-6: Sáng 7h30-11h30, Chiều 13h-17h00",9.601236343383789,105.97370147705078,,
CN Yangon,"9th Floor, HAGL - Myanmar Tower, No 192 Kabar Aye Pagoda Street, Khác, Khác, Khác",Chi nhánh,Chi nhánh,"Thứ 2-6: Sáng 7h30-11h30, Chiều 13h-17h00",16.82761001586914,96.15522766113281,,
CN Yên Bái,"Số 765, Đường Điện Biên, Tổ 8, Phường Minh Tân, Thành phố Yên Bái, Yên Bái",Chi nhánh,Chi nhánh,"Thứ 2-6: Sáng: 7h30-11h30, Chiều: 13h00-17h00",21.715490341186523,104.90509796142578,,
CN Vĩnh Phúc,"Số 08, Đường Kim Ngọc, Phường Ngô Quyền, TP Vĩnh Yên, Vĩnh Phúc",Chi nhánh,Chi nhánh,"Mùa đông (Thứ 2-Thứ 6): Sáng 7h30-11h30, Chiều 13h – 17h. Mùa hè (Thứ 2-Thứ 6): Sáng 7h00-11h30, Chiều 13h30 – 17h",21.309070587158203,105.59449768066406,,
CN Thành Công - Hà Nội,"Từ tầng 1 đến tầng 5, tòa nhà số 01B, Phố Yết Kiêu, Phường Trần Hưng Đạo, Quận Hoàn Kiếm, TP Hà Nội",Chi nhánh,Chi nhánh,"Thứ 2-6: Sáng 7h30-11h30, Chiều 13h-17h00",21.020780563354492,105.84290313720703,,
CN Hưng Yên,"Số 240, Đường Nguyễn Văn Linh, Phường Hiến Nam, TP Hưng Yên, Hưng Yên",Chi nhánh,Chi nhánh,"Thứ 2-6: Sáng 7h30-12h00, Chiều 13h30-17h00",20.667530059814453,106.05819702148438,,
CN Củ Chi,"Số 216-218, Tỉnh lộ 8, Thị trấn Củ Chi, Huyện Củ Chi, TP Hồ Chí Minh",Chi nhánh,Chi nhánh,"Thứ 2-6: Sáng 7h30-11h30, Chiều 13h-16h30",10.974189758300781,106.49700164794922,,
CN Bà Rịa - Vũng Tàu,"Số 24, Đường Trần Hưng Đạo, Phường 1, Thành phố Vũng Tàu, Tỉnh Bà Rịa - Vũng Tàu",Chi nhánh,Chi nhánh,"Thứ 2-6: Sáng 7h30-11h30, Chiều 13h30-17h30",10.343720436096191,107.07730102539062,,
CN Tràng An,"Tầng 1, 2, Toà nhà Liễu Giai Tower, Số 26, Đường Liễu Giai, Phường Cống Vị, Quận Ba Đình, TP Hà Nội",Chi nhánh,Chi nhánh,"Thứ 2-6: Sáng 8h00-12h00, Chiều 13h-17h00",21.04538917541504,105.84329986572266,,
CN Điện Biên,"Số 888, tổ dân phố 4, Phường Mường Thanh, TP Điện Biên Phủ, Tỉnh Điện Biên",Chi nhánh,Chi nhánh,"Thứ 2-6: Sáng 7h15-11h30, Chiều 13h30-17h00",21.390520095825195,103.01580047607422,,
CN Nam Kỳ Khởi Nghĩa," Số 56 (sau), 58, 60, 62, 64, Đường Nam Kỳ Khởi Nghĩa, Phường Nguyễn Thái Bình, Quận 1, TP Hồ Chí Minh",Chi nhánh,Chi nhánh,"Thứ 2-6: Sáng 7h30-11h30, Chiều 13h-16h30",10.770359992980957,106.70159912109375,,
CN Quảng Ngãi,"Số 56, Đường Hùng Vương, Phường Nguyễn Nghiêm, Thành phố Quảng Ngãi, Quảng Ngãi",Chi nhánh,Chi nhánh,"Thứ 2-6: Sáng 7h30-11h30, Chiều 13h-17h00",15.122349739074707,108.79930114746094,,
CN Cẩm Phả,"Số 48, Đường Tô Hiệu, Phường Cẩm Trung, TP Cẩm Phả, Tỉnh Quảng Ninh",Chi nhánh,Chi nhánh,"Thứ 2-6: Sáng 7h30-11h30, Chiều 13h-17h00",21.00881004333496,107.27020263671875,,
CN Nam Bình Dương,"Số 10, Đại lộ Hữu Nghị, KCN Việt Nam - Singapore, Phường Bình Hoà, Thành phố Thuận An, Bình Dương",Chi nhánh,Chi nhánh,"Thứ 2-6: Sáng 7h30-11h30, Chiều 13h-16h45",10.92451000213623,106.71440124511719,,
CN Bình Tân,"Tòa nhà số 300-302, Đường Tên Lửa, Phường Bình Trị Đông B, Quận Bình Tân, TP Hồ Chí Minh",Chi nhánh,Chi nhánh,"Thứ 2-6: Sáng 7h30-11h30, Chiều 13h-16h30",10.750189781188965,106.61129760742188,,
CN Quảng Nam,"Số 112, Đường Phan Bội Châu, Phường Tân Thạnh, Thành phố Tam Kỳ, Quảng Nam",Chi nhánh,Chi nhánh,"Thứ 2-6: Sáng 7h30-11h30, Chiều 13h30-16h30",15.586020469665527,108.46520233154297,,
CN Hải Phòng,"Số 68, Đường Điện Biên Phủ, Phường Minh Khai, Quận Hồng Bàng, TP Hải Phòng",Chi nhánh,Chi nhánh,"Thứ 2-6: Sáng 7h30-11h30, Chiều 13h-17h00",20.861719131469727,106.68229675292969,,
CN Tây Nam Quảng Ninh,"Số 430, Đường Quang Trung, Phường Quang Trung, TP Uông Bí, Quảng Ninh",Chi nhánh,Chi nhánh,"Thứ 2-6: Sáng 7h30-11h30, Chiều 13h-17h00",21.034420013427734,106.77140045166016,,
CN Lai Châu,"Đường 30/4, Tổ 27, Phường Đông Phong, Thành phố Lai Châu, Lai Châu",Chi nhánh,Chi nhánh,"Thứ 2-6: Sáng 7h30-11h30, Chiều 13h-17h00",22.38191032409668,103.47669982910156,,
CN Quảng Ninh,"Số 737, Đường Lê Thánh Tông, Phường Bạch Đằng, TP Hạ Long, Quảng Ninh",Chi nhánh,Chi nhánh,"Thứ 2-6: Sáng 7h30-11h30, Chiều 13h15-17h15",20.954639434814453,107.09210205078125,,
CN Nghệ An,"Đại lộ V.I. Lênin, Phường Hưng Dũng, Thành phố Vinh, tỉnh Nghệ An",Chi nhánh,Chi nhánh,"Thứ 2-6: Sáng 7h30-11h30, Chiều 13h30-17h00",18.68255043029785,105.69329833984375,,
CN Thành Nam,"Số 80, Đường Đông A, KĐT Hoà Vượng, Phường Lộc Vượng, TP Nam Định, Nam Định",Chi nhánh,Chi nhánh,"Mùa Đông: Thứ 2-6: Sáng 7h30-11h30, Chiều 13h30-17h30. Mùa Hè: Thứ 2-6: Sáng 7h00-11h30, Chiều 13h30-17h00",20.436260223388672,106.15869903564453,,
CN Cao Bằng,"Số 15, Đường Hoàng Đình Giong, Phường Hợp Giang, Thành phố Cao Bằng, Cao Bằng",Chi nhánh,Chi nhánh,"Thứ 2-6: Sáng 7h30-11h30, Chiều 13h-17h00",22.6653995513916,106.26069641113281,,
CN Phú Thọ,"Số 1155A, Đường Hùng Vương, Phường Tiên Cát, Thành phố Việt Trì, Phú Thọ",Chi nhánh,Chi nhánh,"Thứ 2-6: Sáng 7h30-11h30, Chiều 13h-17h00",21.30569076538086,105.40689849853516,,
CN Bắc Kạn,"Số 57, Đường Trường Chinh, Phường Đức Xuân, Thành phố Bắc Kạn, Bắc Kạn",Chi nhánh,Chi nhánh,"Thứ 2-6: Sáng 7h30-11h30, Chiều 13h-17h00",22.146230697631836,105.83560180664062,,
CN Ninh Bình,"Đường Lê Hồng Phong, Phường Đông Thành, Thành phố Hoa Lư, Ninh Bình",Chi nhánh,Chi nhánh,"Thứ 2-6. Mùa hè: Sáng 7h00-11h30, Chiều 13h30-17h00. Mùa đông: Sáng 7h30-11h30, Chiều 13h00-17h00",20.258800506591797,105.97789764404297,,
CN Lào Cai,"Phố 30 tháng 04, Phường Nam Cường, Thành phố Lào Cai, Lào Cai",Chi nhánh,Chi nhánh,"Thứ 2-6: Sáng 7h30-11h30, Chiều 13h-17h00",22.447040557861328,104.00569915771484,,
CN Đông Hải Phòng,"Số 12 Lô 30A, Đường Lê Hồng Phong, Phường Đông Khê, Quận Ngô Quyền, TP Hải Phòng",Chi nhánh,Chi nhánh,"Thứ 2-6: Sáng 7h30-11h30, Chiều 13h30-17h00",20.85832977294922,106.69750213623047,,
CN Nhà Bè,"Một phần tầng trệt, một phần tầng 3, tòa nhà Dragon Hill 2, số 15A2, Đường Nguyễn Hữu Thọ, Xã Phước Kiển, Huyện Nhà Bè, TP Hồ Chí Minh",Chi nhánh,Chi nhánh,"Thứ 2-6: Sáng 7h30-11h30, Chiều 13h00-17h00",10.709489822387695,106.70960235595703,,
CN Sa Đéc,"Số 74, Đường Hùng Vương, Phường 2, Thành phố Sa Đéc, Đồng Tháp",Chi nhánh,Chi nhánh,"Thứ 2-6: Sáng 7h30-11h45, Chiều 13h30-16h30",10.289250373840332,105.76730346679688,,
CN An Giang,"Số 185, Đường Lý Thái Tổ, Phường Mỹ Long, Long Xuyên, An Giang",Chi nhánh,Chi nhánh,"Thứ 2-6: Sáng 7h30-11h30, Chiều 13h-16h30",10.378510475158691,105.44409942626953,,
CN Hà Tĩnh,"Số 88, Đường Phan Đình Phùng, Phường Tân Giang, Thành phố Hà Tĩnh, Hà Tĩnh",Chi nhánh,Chi nhánh,"Thứ 2-6: Sáng 7h30-11h30, Chiều 13h30-17h30",18.34054946899414,105.90550231933594,,
CN Hà Giang,"Tổ 9, Phường Nguyễn Trãi, TP Hà Giang, Tỉnh Hà Giang",Chi nhánh,Chi nhánh,"Thứ 2-6: Sáng 7h30-11h30, Chiều 13h30-16h30",22.823659896850586,104.98410034179688,,
CN Kinh Bắc,"Khu nhà ở và dịch vụ công cộng Cát Tường New, Lô CC03, Đường Lý Thái Tổ, Phường Tiền Ninh Vệ, TP Bắc Ninh, Tỉnh Bắc Ninh",Chi nhánh,Chi nhánh,"Thứ 2-6: Sáng 7h30-11h30, Chiều 13h30-17h00",21.173969268798828,106.06379699707031,,
CN Đồng Khởi,"Số 59, Đại lộ Đồng Khởi, Phường An Hội, TP Bến Tre, Tỉnh Bến Tre",Chi nhánh,Chi nhánh,"Thứ 2-6: Sáng 7h30-11h30, Chiều 13h-17h00",10.237039566040039,106.37660217285156,,
CN Phú Quốc,"Số 196, Đường Nguyễn Trung Trực, Phường Dương Đông, TP Phú Quốc, Tỉnh Kiên Giang",Chi nhánh,Chi nhánh,"Thứ 2-6: Sáng 7h00-11h00, Chiều 13h-16h30",10.223270416259766,103.96790313720703,,
CN Sa Pa,"Số 166, Đường Thạch Sơn, Phường Sa Pa, TX Sa Pa, Tỉnh Lào Cai",Chi nhánh,Chi nhánh,"Mùa hè: Thứ 2-6: Sáng: 7h30- 12h00, Chiều: 13h30 - 17h00. Mùa đông: Thứ 2-6: Sáng: 7h30- 12h00, Chiều: 13h00 - 16h30",22.336719512939453,103.84950256347656,,
CN Thái Hà,"Toà nhà Golden Palm, tầng 1 và tầng 2, số 21, Đường Lê Văn Lương, Phường Nhân Chính, Quận Thanh Xuân, TP Hà Nội",Chi nhánh,Chi nhánh,"Thứ 2-6: Sáng 7h30-11h30, Chiều 13h-16h30",21.006929397583008,105.80750274658203,,
CN Bắc Hải Dương,"Số 206, Đường Nguyễn Trãi 2, Phường Sao Đỏ, TP Chí Linh, Hải Dương",Chi nhánh,Chi nhánh,"Thứ 2-6: Sáng 7h00-11h30, Chiều 13h30-17h00",21.10700035095215,106.38410186767578,,
CN Từ Sơn,"Số 368, Đường Trần Phú, Phường Đông Ngàn, Thành phố Từ Sơn, Bắc Ninh",Chi nhánh,Chi nhánh,"Thứ 2-6: Sáng 8h00-11h30, Chiều 13h30-17h00",21.116270065307617,105.95600128173828,,
CN Nam Định,"Số 202, Đường Hùng Vương, Phường Vị Xuyên, TP Nam Định, Tỉnh Nam Định",Chi nhánh,Chi nhánh,"Mùa hè: Thứ 2-6: Sáng 7h30-11h30, Chiều 13h30-17h30. Mùa đông: Thứ 2-6: Sáng 7h30-11h30, Chiều 13h30-17h30",20.433900833129883,106.18389892578125,,
CN Kiên Giang,"Số 259-261, Đường Trần Phú, Phường Vĩnh Thanh Vân, Thành phố Rạch Giá, Kiên Giang",Chi nhánh,Chi nhánh,"Thứ 2-6: Sáng 7h15-11h15, Chiều 13h-16h30",10.009790420532227,105.0864028930664,,
CN Bà Rịa,"Số 01, Đường Trường Chinh, Phường Phước Trung, Thành phố Bà Rịa, Bà Rịa - Vũng Tàu",Chi nhánh,Chi nhánh,"Thứ 2-6: Sáng 7h30-11h30, Chiều 13h30-17h30",10.488200187683105,107.17469787597656,,
CN Quy Nhơn,"Số 155-159-161, Đường Lê Hồng Phong, Phường Trần Phú, TP Quy Nhơn, Tỉnh Bình Định",Chi nhánh,Chi nhánh,"Thứ 2-6: Sáng 7h30-11h30, Chiều 13h30-17h30",13.77278995513916,109.22810363769531,,
CN Phú Yên,"Số 100, Đường Duy Tân, Phường 5, Thành phố Tuy Hoà, Phú Yên",Chi nhánh,Chi nhánh,"Thứ 2-6: Sáng 7h30-11h30, Chiều 13h30-17h30",13.092820167541504,109.30899810791016,,
CN Ba Tháng Hai,"Số 456, Đường Ba Tháng Hai, Phường 12, Quận 10, TP Hồ Chí Minh",Chi nhánh,Chi nhánh,"Thứ 2-6: Sáng 7h30-11h30, Chiều 13h-17h00",10.768509864807129,106.66819763183594,,
CN Mỹ Đình,"Tầng 1, 2, 3, khu tổ hợp văn phòng, trung tâm thương mại và chung cư cao cấp Golden Palace, Phường Mễ Trì, Quận Nam Từ Liêm, TP Hà Nội",Chi nhánh,Chi nhánh,"Thứ 2-6: Sáng 7h30-11h30, Chiều 13h-17h00",21.011690139770508,105.77490234375,,
CN Quận 7 Sài Gòn,"Số 38-40-42, Đường Nguyễn Thị Thập, Phường Tân Hưng, Quận 7, TP Hồ Chí Minh",Chi nhánh,Chi nhánh,Từ thứ 2 đến thứ 6 Sáng : 7:30 - 11:30 Chiều : 13:00 - 16:30,10.740859985351562,106.69889831542969,,
CN Tam Điệp,"Đường Đồng Giao, Phường Bắc Sơn, TP Tam Điệp, Tỉnh Ninh Bình",Chi nhánh,Chi nhánh,"Thứ 2-6: Sáng 7h30-11h30, Chiều 13h-17h00",20.156269073486328,105.91410064697266,,
CN Tây Sài Gòn,"Tầng 1, số 70, Đường Lữ Gia, Phường 15, Quận 11, TP Hồ Chí Minh",Chi nhánh,Chi nhánh,"Thứ 2-6: Sáng 7h30-11h30, Chiều 13h-16h30",10.772660255432129,106.65299987792969,,
CN Phố Núi,"Số 242, Đường Nguyễn Tất Thành, Phường Phù Đổng, Thành phố Pleiku, Gia Lai",Chi nhánh,Chi nhánh,"Thứ 2-6: Sáng 7h00-11h00, Chiều 13h-16h30",13.976300239562988,108.01419830322266,,
CN Đăk Nông,"Đường 23/3, Phường Nghĩa Trung, Thành phố Gia Nghĩa, Đăk Nông",Chi nhánh,Chi nhánh,"Thứ 2-6: Sáng 7h30-11h30, Chiều 13h30 - 16h30.",12.000940322875977,107.69499969482422,,
CN Hà Nam,"Số 210, Đường Lê Hoàn, Phường Quang Trung, TP Phủ Lý, Hà Nam",Chi nhánh,Chi nhánh,"Giờ mùa hè: Thứ 2-6: Sáng 7h00-11h30, Chiều 13h30-17h00. Giờ mùa đông: Thứ 2-6: Sáng 7h30-11h30, Chiều 13h30-17h30",20.561939239501953,105.92150115966797,,
CN Bạc Liêu,"Số 169A, Đường 23/8, Phường 8, Thành phố Bạc Liêu, Bạc Liêu",Chi nhánh,Chi nhánh,"Thứ 2-6: Sáng 7h15-10h45, Chiều 13h15-17h00",9.294893264770508,105.71420288085938,,
CN Hóc Môn,"Số 75, Đường Lý Thường Kiệt, Thị trấn Hóc Môn, Huyện Hóc Môn, TP Hồ Chí Minh",Chi nhánh,Chi nhánh,"Thứ 2-6: Sáng 7h30-11h30, Chiều 13h-16h30",10.886980056762695,106.5906982421875,,
CN Trung tâm Khách hàng Cá nhân Cao cấp TP Hồ Chí Minh,"Tầng 2, Tòa nhà SaiGon Plaza, số 24, đường Lê Thánh Tôn, Phường Bến Nghé, Quận 1, TP Hồ Chí Minh",Chi nhánh,Chi nhánh,"Thứ 2-6: Sáng 7h30-11h30, Chiều 13h-17h",10.780229568481445,106.70439910888672,,
CN Vũng Tàu - Côn Đảo,"Số 475, Nguyễn An Ninh, Phường 9, TP Vũng Tàu, Tỉnh Bà Rịa - Vũng Tàu",Chi nhánh,Chi nhánh,"Thứ 2-6: Sáng 7h30-11h30, Chiều 13h30-17h30",10.36614990234375,107.08869934082031,,
CN Hải Vân,"Số 339, Đường Nguyễn Lương Bằng, Phường Hoà Khánh Bắc, Quận Liên Chiểu, TP Đà Nẵng",Chi nhánh,Chi nhánh,"Thứ 2-6: Sáng 7h30-11h30, Chiều 13h-16h30",16.083389282226562,108.14550018310547,,
CN Thống Nhất,"Toà nhà Sài Gòn Plaza, Số 24, Đường Lê Thánh Tôn, Phường Bến Nghé, Quận 1, TP Hồ Chí Minh",Chi nhánh,Chi nhánh,"Thứ 2-6: Sáng 7h30-11h30, Chiều 13h-17h00",10.780380249023438,106.70439910888672,,
CN Phú Nhuận,"Số 36 - 38 Nguyễn Văn Trỗi, Phường 15, Quận Phú Nhuận, TP Hồ Chí Minh",Chi nhánh,Chi nhánh,"Thứ 2-6: Sáng 7h30-11h30, Chiều 13h-16h30",10.79341983795166,106.67949676513672,,
CN Tiền Giang,"Số 208A, Đường Nam Kỳ Khởi Nghĩa, Phường 1, Thành phố Mỹ Tho, Tiền Giang",Chi nhánh,Chi nhánh,"Thứ 2-6: Sáng 7h15-11h30, Chiều 13h30-16h45",10.359729766845703,106.36190032958984,,
CN Mỹ Phước,"Lô D1, Đường NA3, Khu công nghiệp Mỹ Phước 2, Phường Mỹ Phước, Thành phố Bến Cát, Bình Dương",Chi nhánh,Chi nhánh,"Thứ 2-6: Sáng 7h30-11h30, Chiều 13h-16h30",11.138070106506348,106.61519622802734,,
CN Móng Cái,"02C đường Hùng Vương, Phường Trần Phú, TP Móng Cái, Tỉnh Quảng Ninh",Chi nhánh,Chi nhánh,"Thứ 2-6: Sáng 7h30-11h30, Chiều 13h-17h00",21.52907943725586,107.96900177001953,,
CN Lâm Đồng,"Số 22, Đường Trần Phú, Phường 3, Thành phố Đà Lạt, Lâm Đồng",Chi nhánh,Chi nhánh,"Thứ 2-6: Sáng 7h30-11h30, Chiều 13h30-17h00",11.936409950256348,108.43399810791016,,
CN Khánh Hoà,"Số 1292, Đường 2/4, Phường Vạn Thạnh, TP Nha Trang, Tỉnh Khánh Hoà",Chi nhánh,Chi nhánh,"Thứ 2-6: Sáng 7h30-11h30, Chiều 13h30-17h00",12.209890365600586,109.09290313720703,,
CN Nam Thái Nguyên,"Số120, đường Trường Chinh, Phường Ba Hàng, TP. Phổ Yên, Tỉnh Thái Nguyên",Chi nhánh,Chi nhánh,"Thứ 2-6: Sáng 7h30-11h30, Chiều 13h30-17h00",21.410459518432617,105.87249755859375,,
CN Lam Sơn,"Số 07,  Phan Chu Trinh, Phường Điện Biên, TP Thanh Hoá, Tỉnh Thanh Hoá",Chi nhánh,Chi nhánh," Thứ 2-6: Sáng 7h35-11h50, Chiều 13h30-16h30",19.811609268188477,105.7761001586914,,
CN Ban Mê,"Số 41, Đường Nguyễn Tất Thành, Phường Tân An, TP Buôn Ma Thuột, Tỉnh Đăk Lăk",Chi nhánh,Chi nhánh,"Thứ 2-6: Sáng 7h00-11h30, Chiều 13h30-17h00",12.689370155334473,108.05840301513672,,
CN Bắc Hưng Yên,"Ngã tư Phố Nối, Xã Nguyễn Văn Linh, Huyện Yên Mỹ, Tỉnh Hưng Yên",Chi nhánh,Chi nhánh,"Thứ 2-6: Sáng 7h30-11h30, Chiều 13h-17h00",20.930620193481445,106.05690002441406,,
CN Sông Hàn,"Số 129, Đường Lê Lợi, Phường Hải Châu I, Quận Hải Châu, TP Đà Nẵng",Chi nhánh,Chi nhánh,"Thứ 2-6: Sáng 7h30-11h30, Chiều 13h30-16h30",16.074499130249023,108.22000122070312,,
CN Sài Gòn,"Số 271, Đường An Dương Vương, Phường 2, Quận 5, TP Hồ Chí Minh",Chi nhánh,Chi nhánh,"Thứ 2-6: Sáng 7h30-11h30, Chiều 13h-17h00",10.760760307312012,106.68260192871094,,
CN Lạch Tray,"Số 126 Lạch Tray, Phường Lạch Tray, Quận Ngô Quyền, TP Hải Phòng",Chi nhánh,Chi nhánh,"Thứ 2-6: Sáng 7h30-11h30, Chiều 13h-17h00",20.84585952758789,106.69149780273438,,
CN Bắc Quảng Bình,"Số 368, Đường Quang Trung, Phường Ba Đồn, TX Ba Đồn, Tỉnh Quảng Bình",Chi nhánh,Chi nhánh,"Thứ 2-6: Sáng 7h30-11h30, Chiều 13h30-17h00",17.757110595703125,106.42120361328125,,
CN Đà Nẵng,"Số 90, Đường Nguyễn Chí Thanh, Phường Hải Châu, Quận Hải Châu, TP Đà Nẵng",Chi nhánh,Chi nhánh,"Thứ 2-6: Sáng 7h30-11h30, Chiều 13h30-16h30",16.070680618286133,108.22109985351562,,
CN Bình Chánh,"Tầng trệt Tòa nhà Hoàng Tháp, Đường 9A, Xã Bình Hưng, Huyện Bình Chánh, TP Hồ Chí Minh",Chi nhánh,Chi nhánh,"Thứ 2-6: Sáng 7h30-11h30, Chiều 13h-17h00",10.731459617614746,106.68910217285156,,
CN Sơn Tây,"Số 99, Phố Phạm Ngũ Lão, Phường Ngô Quyền, TX Sơn Tây, TP Hà Nội",Chi nhánh,Chi nhánh,"Thứ 2-6: Sáng 7h30-12h00, Chiều 13h30-17h00",21.146930694580078,105.50530242919922,,
CN Biên Hoà,"Số 304-306, Đường Võ Thị Sáu, Khu phố 4, Phường Thống Nhất, TP Biên Hoà, Tỉnh Đồng Nai",Chi nhánh,Chi nhánh,"Thứ 2-6: Sáng 7h30-11h30, Chiều 13h-17h00",10.947749137878418,106.83220672607422,,
CN Phủ Diễn,"Khối 4, Thị trấn Diễn Thành, Huyện Diễn Châu, Tỉnh Nghệ An",Chi nhánh,Chi nhánh,"Mùa hè:Thứ 2-6: Sáng 7h00-11h30, Chiều 13h30-17h00. Mùa đông:Thứ 2-6: Sáng 7h30-12h00, Chiều 13h30-17h00",18.9760799407959,105.60060119628906,,
CN TP Cần Thơ,"Số 12, Đường Hoà Bình, Phường Thới Bình, Quận Ninh Kiều, TP Cần Thơ",Chi nhánh,Chi nhánh,"Thứ 2-6: Sáng 7h30-11h30, Chiều 13h-17h00",10.034649848937988,105.78510284423828,,
CN Trà Vinh,"Số 2B, Đường Lê Thánh Tôn, Phường 3, TP Trà Vinh, Tỉnh Trà Vinh",Chi nhánh,Chi nhánh,"Thứ 2-6: Sáng 7h30-11h30, Chiều 13h00-16h00",9.936698913574219,106.33889770507812,,
CN Bến Tre,"Số 21, Đại lộ Đồng Khởi, Phường An Hội, TP Bến Tre, Tỉnh Bến Tre",Chi nhánh,Chi nhánh,"Thứ 2-6: Sáng 7h00-11h00, Chiều 13h-17h00",10.238670349121094,106.3760986328125,,
CN Hồng Hà,"Tầng 1, 2, 3, Toà nhà số 2, Đường Tôn Thất Tùng, Phường Kim Liên, Quận Đống Đa, TP Hà Nội",Chi nhánh,Chi nhánh,"Thứ 2-6: Sáng 7h30-11h30, Chiều 13h-17h00",21.006080627441406,105.83090209960938,,
BIDV TRUNG SƠN THANH HÓA,"Số 117, Đường Trần Phú, Phường Ba Đình, Thị xã Bỉm Sơn, Thanh Hoá",Chi nhánh,Chi nhánh,"Thứ 2-6: Sáng 7h30-11h30, Chiều 13h-17h00",20.083669662475586,105.86190032958984,,
CN Trường Sơn,"Số 316, Đường Nguyễn Thái Sơn, Phường 1, Quận Gò Vấp, TP Hồ Chí Minh",Chi nhánh,Chi nhánh,"Thứ 2-6: Sáng 7h30-11h30, Chiều 13h-17h00",10.822589874267578,106.6854019165039,,
CN Thái Nguyên,"Số 653, Đường Lương Ngọc Quyến, tổ 12, Phường Phan Đình Phùng, TP Thái Nguyên, Tỉnh Thái Nguyên",Chi nhánh,Chi nhánh,"Thứ 2-6: Sáng 7h30-11h30, Chiều 13h30-16h30",21.58233070373535,105.83599853515625,,
CN Bình Thuận,"Số 286A, Đường Trần Hưng Đạo, Phường Bình Hưng, Thành phố Phan Thiết, Bình Thuận",Chi nhánh,Chi nhánh,"Thứ 2-6: Sáng 7h30-11h30, Chiều 13h-17h00",10.927399635314941,108.10299682617188,,
CN Phú Mỹ,"Số 1589 đường Độc Lập, Phường Phú Mỹ, TP Phú Mỹ, Tỉnh Bà Rịa - Vũng Tàu",Chi nhánh,Chi nhánh,"Thứ 2-6: Sáng 7h45-11h45, Chiều 13h15-16h30",10.58782958984375,107.05549621582031,,
CN Cà Mau,"Số 05A, Đường An Dương Vương, Khóm 4, Phường 7, Thành phố Cà Mau, Cà Mau",Chi nhánh,Chi nhánh,"Thứ 2-6: Sáng 7h30-11h30, Chiều 13h-17h00",9.174715042114258,105.15039825439453,,
CN Đồng Tháp,"Số 12A, Đường 30/4, Phường 1, TP Cao Lãnh, Tỉnh Đồng Tháp",Chi nhánh,Chi nhánh,"Thứ 2-6: Sáng 7h30-12h00, Chiều 13h30-17h00",10.460180282592773,105.63089752197266,,
CN Hà Nội,"Số 4B, Đường Lê Thánh Tông, Phường Phan Chu Trinh, Quận Hoàn Kiếm, TP Hà Nội",Chi nhánh,Chi nhánh,"Thứ 2-6: Sáng 8h-11h30, Chiều 13h-17h",21.022369384765625,105.85749816894531,,
CN Hải Dương,"Số 2, Đường Lê Thanh Nghị, Phường Lê Thanh Nghị, TP Hải Dương, Tỉnh Hải Dương",Chi nhánh,Chi nhánh,"Thứ 2-6: Sáng 07h00-11h15, Chiều 13h30-16h30",20.937530517578125,106.32039642333984,,
CN Thành Đông,"Số 238, Đường Trường Chinh, Phường Tân Bình, TP Hải Dương, Hải Dương",Chi nhánh,Chi nhánh,"Thứ 2-6: Sáng 7h00-11h30, Chiều 13h30-17h00",20.92827033996582,106.31620025634766,,
PGD 138B Giảng Võ,"Số 138B, Đường Giảng Võ, Phường Giảng Võ, Quận Ba Đình, TP Hà Nội",Phòng giao dịch,Phòng giao dịch,"Thứ 2-6: Sáng 7h30-11h30, Chiều 13h-17h00",21.028799057006836,105.82569885253906,,
PGD Nguyễn Du,"159-161 Lê Thánh Tôn, Phường Bến Thành, Quận 1, TP Hồ Chí Minh",Phòng giao dịch,Phòng giao dịch,"Thứ 2-6: Sáng 7h30-11h30, Chiều 13h-17h00",10.773900032043457,106.6989974975586,,
PGD 268 Đội Cấn,"Số 268, Phố Đội Cấn, Phường Cống Vị, Quận Ba Đình, TP Hà Nội",Phòng giao dịch,Phòng giao dịch,"Thứ 2-6: Sáng 7h30-11h30, Chiều 13h-17h00",21.03757095336914,105.81390380859375,,
PGD 90 Nguyễn Tuân,"Toà nhà HH1, số 90 phố Nguyễn Tuân, Phường Thanh Xuân Trung, Quận Thanh Xuân, TP Hà Nội",Phòng giao dịch,Phòng giao dịch,"Thứ 2-6: Sáng 7h30-11h30, Chiều 13h-17h00",21.010379791259766,105.82479858398438,,
PGD Nguyễn Lương Bằng,"C17-1-2 Đường Nguyễn Lương Bằng, Phường Tân Phú, Quận 7, TP Hồ Chí Minh",Phòng giao dịch,Phòng giao dịch,"Thứ 2-6: Sáng 7h30-11h30, Chiều 13h-17h00",10.729290008544922,106.72200012207031,,
PGD 99 Láng Hạ,"Số 99, Đường Láng Hạ, Phường Láng Hạ, Quận Đống Đa, TP Hà Nội",Phòng giao dịch,Phòng giao dịch,"Thứ 2-6: Sáng 7h30-11h30, Chiều 13h-17h00",21.01296043395996,105.81279754638672,,
PGD An Hưng,"Nhà V6-A01, dự án The Terra - An Hưng, 102 Đường Nguyễn Thanh Bình, Phường La Khê, Quận Hà Đông, TP Hà Nội",Phòng giao dịch,Phòng giao dịch,"Thứ 2-6: Sáng 8h-11h30, Chiều 13h30-16h30",20.97226905822754,105.75640106201172,,
PGD Nguyễn Thái Sơn,"Số 366A11, Đường Phan Văn Trị, Phường 5, Quận Gò Vấp, TP Hồ Chí Minh",Phòng giao dịch,Phòng giao dịch,"Thứ 2-6: Sáng 7h30-11h30, Chiều 13h-17h00",10.823880195617676,106.69210052490234,,
PGD An Khánh,"Thôn Ngãi Cầu, Xã An Khánh, Huyện Hoài Đức, TP Hà Nội",Phòng giao dịch,Phòng giao dịch,"Thứ 2-6: Sáng 7h30-11h30, Chiều 13h-17h00",20.991180419921875,105.72830200195312,,
PGD Bà Triệu,"Số 46-48, Phố Bà Triệu, Phường Hàng Bài, Quận Hoàn Kiếm, TP Hà Nội",Phòng giao dịch,Phòng giao dịch,"Thứ 2-6: Sáng 7h30-11h30, Chiều 13h-17h00",21.022859573364258,105.85060119628906,,
PGD Ba Vì,"Số 340 Quảng Oai, Thị trấn Tây Đằng, Huyện Ba Vì, TP Hà Nội",Phòng giao dịch,Phòng giao dịch,"Thứ 2-6: Sáng 7h30-12h00, Chiều 13h30-16h30",21.196239471435547,105.4269027709961,,
PGD Chư Sê,"Số 802, Đường Hùng Vương, Thị trấn Chư Sê, Huyện Chư Sê, Gia Lai",Phòng giao dịch,Phòng giao dịch,"Thứ 2-6: Sáng 7h30-11h30, Chiều 13h-17h00",13.695910453796387,108.07640075683594,,
PGD Nguyễn Thượng Hiền,"Số 232, Đường Trần Hưng Đạo, Phường Nguyễn Cư Trinh, Quận 1, TP Hồ Chí Minh",Phòng giao dịch,Phòng giao dịch,"Thứ 2-6: Sáng 7h30-11h30, Chiều 13h-17h00",10.762069702148438,106.69010162353516,,
PGD Bắc Linh Đàm,"Lô BT1, Ô số 19, Khu Bắc Linh Đàm, Phường Hoàng Liệt, Quận Hoàng Mai, TP Hà Nội",Phòng giao dịch,Phòng giao dịch,"Thứ 2-6: Sáng 7h30-11h30, Chiều 13h-17h00",20.964950561523438,105.82559967041016,,
PGD Nguyễn Văn Cừ,"Số 143 - 145, Đường Nguyễn Văn Cừ, Phường 2, Quận 5, TP Hồ Chí Minh",Phòng giao dịch,Phòng giao dịch,"Thứ 2-6: Sáng 7h30-11h30, Chiều 13h-16h00",10.7576904296875,106.68450164794922,,
PGD Bách Khoa,"Số 17, Phố Tạ Quang Bửu, Phường Bách Khoa, Quận Hai Bà Trưng, TP Hà Nội",Phòng giao dịch,Phòng giao dịch,"Thứ 2-6: Sáng 7h30-11h30, Chiều 13h-17h00",21.004039764404297,105.84729766845703,,
PGD Đức Cơ,"Số 545, Đường Quang Trung, Tổ dân phố 2, Thị trấn Chư Ty, Huyện Đức Cơ, Gia Lai",Phòng giao dịch,Phòng giao dịch,"Thứ 2-6: Sáng 7h30-11h30, Chiều 13h-17h00",13.800259590148926,107.69429779052734,,
PGD Nhật Tảo,"Số 483, Đường Nguyễn Tri Phương, Phường 08, Quận 10, TP Hồ Chí Minh",Phòng giao dịch,Phòng giao dịch,"Thứ 2-6: Sáng 7h30-11h30, Chiều 13h-17h00",10.765419960021973,106.6675033569336,,
PGD Nơ Trang Long,"Số 301, Đường Nơ Trang Long, Phường 13, Quận Bình Thạnh, Thành phố Hồ Chí Minh",Phòng giao dịch,Phòng giao dịch,"Thứ 2-6: Sáng 7h30-11h30, Chiều 13h-17h00",10.81898021697998,106.69950103759766,,
PGD Hùng Vương,"Số 90 - Đường Hùng Vương, Phường Hội Thương, Pleiku, Gia Lai",Phòng giao dịch,Phòng giao dịch,"Thứ 2-6: Sáng 7h30-11h30, Chiều 13h-17h00",13.976530075073242,108.0022964477539,,
PGD Cát Linh,"Số 13A, Phố Cát Linh, Phường Quốc Tử Giám, Quận Đống Đa, TP Hà Nội",Phòng giao dịch,Phòng giao dịch,"Thứ 2-6: Sáng 7h30-11h30, Chiều 13h-17h00",21.02836036682129,105.83219909667969,,
PGD Ia Grai,"367 Đường Hùng Vương, Thị trấn Ia Kha, Ia Grai, Gia Lai",Phòng giao dịch,Phòng giao dịch,"Thứ 2-6: Sáng 7h30-11h30, Chiều 13h-17h00",13.962019920349121,107.84349822998047,,
PGD Cầu Diễn,"Số 157, Đường Cầu Diễn, Phường Phúc Diễn, Quận Bắc Từ Liêm, TP Hà Nội",Phòng giao dịch,Phòng giao dịch,"Thứ 2-6: Sáng 8h-12h, Chiều 13h-16h",21.042959213256836,105.75800323486328,,
PGD Thành Công,"Số 13, Đường Phan Bội Châu, Phường Hội Thương, Thành phố Pleiku, Gia Lai",Phòng giao dịch,Phòng giao dịch,"Thứ 2-6: Sáng 7h30-11h30, Chiều 13h-17h00",13.977029800415039,108.00509643554688,,
PGD Phú Lâm,"Số 536-538 đường Hậu Giang, Phường 12, Quận 6, TP Hồ Chí Minh",Phòng giao dịch,Phòng giao dịch,"Thứ 2-6: Sáng 7h30-11h30, Chiều 13h-17h00",10.748339653015137,106.63629913330078,,
PGD Phú Thạnh,"Số 139D, Đường Phan Đăng Lưu, Phường 2, Quận Phú Nhuận, TP Hồ Chí Minh",Phòng giao dịch,Phòng giao dịch,"Thứ 2-6: Sáng 7h30-11h30, Chiều 13h-16h30",10.802209854125977,106.68370056152344,,
PGD Cửa Nam,"Tầng 1, tầng 2, Số 17, Phố Phan Bội Châu, Phường Cửa Nam, Quận Hoàn Kiếm, TP Hà Nội",Phòng giao dịch,Phòng giao dịch,"Thứ 2-6: Sáng 7h30-11h30, Chiều 13h-17h00",21.026369094848633,105.84369659423828,,
PGD Phú Xuân,"Một phần căn nhà số 1987, Đường Huỳnh Tấn Phát, Khu 6, Thị trấn Nhà Bè, Huyện Nhà Bè, TP Hồ Chí Minh",Phòng giao dịch,Phòng giao dịch,"Thứ 2-6: Sáng 7h30-11h30, Chiều 13h-17h00",10.69655990600586,106.73970031738281,,
PGD D2 Giảng Võ,"Toà nhà D2, Đường Giảng Võ, Phường Giảng Võ, Quận Ba Đình, TP Hà Nội",Phòng giao dịch,Phòng giao dịch,"Thứ 2-6: Sáng 7h30-11h30, Chiều 13h-17h00",21.026330947875977,105.82279968261719,,
PGD Đan Phượng,"Số 107, đường Tây Sơn, Thị trấn Phùng, Huyện Đan Phượng, TP Hà Nội",Phòng giao dịch,Phòng giao dịch,"Thứ 2-6: Sáng 8h00-12h00, Chiều 13h-17h00",21.083690643310547,105.67109680175781,,
PGD Quận 10,"Tầng trệt, Tòa nhà Hùng Vương, số 670-672, Đường Ba Tháng Hai, Phường 14, Quận 10, TP Hồ Chí Minh",Phòng giao dịch,Phòng giao dịch,"Thứ 2-6: Sáng 8h00-11h30, Chiều 13h-16h30",10.764670372009277,106.66120147705078,,
PGD Detech Tower,"Tầng 1 tòa nhà Detech Tower, Số 8 Tôn Thất Thuyết, Phường Mỹ Đình 2, Quận Nam Từ Liêm, TP Hà Nội",Phòng giao dịch,Phòng giao dịch,"Thứ 2-6: Sáng 7h30-11h30, Chiều 13h-17h00",21.028549194335938,105.78179931640625,,
PGD Ea Hleo,"Số 565, Đường Giải Phóng, Thị trấn Ea Drăng, Huyện Ea H'leo, Tỉnh Đăk Lăk",Phòng giao dịch,Phòng giao dịch,"Thứ 2-6: Sáng 7h30-11h30, Chiều 13h30-16h45",13.205120086669922,108.20760345458984,,
PGD Dịch Vọng,"Tầng 1, số 80, Đường Khúc Thừa Dụ, Phường Dịch Vọng, Quận Cầu Giấy, TP Hà Nội",Phòng giao dịch,Phòng giao dịch,"Thứ 2-6: Sáng 7h30-11h30, Chiều 13h-17h00",21.030099868774414,105.79109954833984,,
PGD Quận 12,"Số 7A &7A/3 đường Nguyễn Ảnh Thủ, phường Hiệp Thành, Quận 12, TP. Hồ Chí Minh",Phòng giao dịch,Phòng giao dịch,"Thứ 2-6: Sáng 7h30-11h30, Chiều 13h-17h00",10.876629829406738,106.64610290527344,,
PGD Điện Biên Phủ,"Số 14, Đường Điện Biên Phủ, Phường Điện Biên, Quận Ba Đình, TP Hà Nội",Phòng giao dịch,Phòng giao dịch,"Thứ 2-6: Sáng 7h30-11h30, Chiều 13h-17h00",21.02960968017578,105.84230041503906,,
PGD Định Công,"Toà nhà hỗn hợp An Bình 1, Khu đô thị Định Công, Phường Định Công, Quận Hoàng Mai, TP Hà Nội",Phòng giao dịch,Phòng giao dịch,"Thứ 2-6: Sáng 7h30-11h30, Chiều 13h-17h00",20.986509323120117,105.8311996459961,,
PGD Quận 6,"Số 119, Đường Hậu Giang, Phường 5, Quận 6, TP Hồ Chí Minh",Phòng giao dịch,Phòng giao dịch,"Thứ 2-6: Sáng 7h30-11h30, Chiều 13h-17h00",10.749739646911621,106.64630126953125,,
PGD Đồng Tâm,"Số 197 Đại La, Phường Đồng Tâm, Quận Hai Bà Trưng, TP Hà Nội",Phòng giao dịch,Phòng giao dịch,"Thứ 2-6: Sáng 7h30-11h30, Chiều 13h-17h00",20.996990203857422,105.84339904785156,,
PGD Quang Trung Gò Vấp,"Số 420, Đường Quang Trung, Phường 10, Quận Gò Vấp, TP Hồ Chí Minh",Phòng giao dịch,Phòng giao dịch,"Thứ 2-6: Sáng 7h30-11h30, Chiều 13h-17h00",10.833200454711914,106.66649627685547,,
PGD Đức Giang,"Số 122, Đường Ngô Gia Tự, Phường Đức Giang, Quận Long Biên, TP Hà Nội",Phòng giao dịch,Phòng giao dịch,"Thứ 2-6: Sáng 7h30-11h30, Chiều 13h-17h00",21.059669494628906,105.8926010131836,,
PGD Rạch Miễu,"Số 27, Đường Hoa Đào, Phường 2, Quận Phú Nhuận, TP Hồ Chí Minh",Phòng giao dịch,Phòng giao dịch,"Thứ 2-6: Sáng 7h30-11h30, Chiều 13h-17h00",10.797679901123047,106.68730163574219,,
PGD Krông Năng,"Số 105, Đường Nguyễn Tất Thành, Thị trấn Krông Năng, Huyện Krông Năng, Đăk Lăk",Phòng giao dịch,Phòng giao dịch,"Thứ 2-6: Sáng 7h30-11h30, Chiều 13h30-16h45",12.951350212097168,108.34040069580078,,
PGD Đường Thành,"Số 37B, Phố Đường Thành, Phường Cửa Đông, Quận Hoàn Kiếm, TP Hà Nội",Phòng giao dịch,Phòng giao dịch,"Thứ 2-6: Sáng 7h30-11h30, Chiều 13h-17h00",21.032920837402344,105.84619903564453,,
PGD Tam Bình,"Đường số 11, Phường Tam Bình, TP Thủ Đức, TP Hồ Chí Minh",Phòng giao dịch,Phòng giao dịch,"Thứ 2-6: Sáng 7h30-11h30, Chiều 13h-16h30",10.865030288696289,106.73419952392578,,
PGD Duy Tân,"Tầng 1, Tòa nhà Trung tâm Công nghệ thông tin BIDV, Lô C1C, Phố Duy Tân, Phường Dịch Vọng Hậu, Quận Cầu Giấy, TP Hà Nội",Phòng giao dịch,Phòng giao dịch,"Thứ 2-6: Sáng 7h30-11h30, Chiều 13h-17h00",21.030550003051758,105.78489685058594,,
PGD Tân Hưng,"Số 480-480A, Đường Nguyễn Thị Thập, Phường Tân Quy, Quận 7, TP Hồ Chí Minh",Phòng giao dịch,Phòng giao dịch,"Thứ 2-6: Sáng 7h30-11h30, Chiều 13h-17h00",10.73960018157959,106.7061996459961,,
PGD Vạn Mỹ,"Số 274 đường Đà Nẵng, Phường Vạn Mỹ, Quận Ngô Quyền, TP Hải Phòng",Phòng giao dịch,Phòng giao dịch,"Thứ 2-6: Sáng 7h30-11h30, Chiều 13h30-17h00",20.860919952392578,106.70829772949219,,
PGD Vin Thượng Lý,"Số 40+41 Khu  BH01 - ô số 4 lô OTM-5 Khu đô thị Vinhomes Imperia, đường Bạch Đằng, Phường Thượng Lý, Quận Hồng Bàng, TP Hải Phòng",Phòng giao dịch,Phòng giao dịch,"Thứ 2-6: Sáng 7h30-11h30, Chiều 13h-17h00",20.86186981201172,106.66629791259766,,
PGD Tân Quy,"Số 1010, Tỉnh lộ 15, Ấp 12, Xã Tân Thạnh Đông, Huyện Củ Chi, TP Hồ Chí Minh",Phòng giao dịch,Phòng giao dịch,"Thứ 2-6: Sáng 7h30-11h30, Chiều 13h-16h30",10.983200073242188,106.57679748535156,,
PGD Green Bay,"Tầng 1, Toà nhà G3, Khu đô thị Vinhomes Green Bay, Phường Mễ Trì, Quận Nam Từ Liêm, TP Hà Nội",Phòng giao dịch,Phòng giao dịch,"Thứ 2-6: Sáng 7h30-11h30, Chiều 13h-17h00",21.000879287719727,105.783203125,,
PGD PơngDrang,"Quốc lộ 14, Chợ Pơng Đrăng, Thị trấn PơngDrang, Huyện Krông Buk, Đăk Lăk",Phòng giao dịch,Phòng giao dịch,"Thứ 2-6: Sáng 7h30-11h30, Chiều 13h30-16h45",12.951780319213867,108.24829864501953,,
PGD Tân Sơn Nhất,"Khu TMDV 2-1 và TMDV 2-2 (Tầng 2) Tòa nhà Park Legend, số 251 đường Hoàng Văn Thụ, Phường 2, Quận Tân Bình, TP Hồ Chí Minh",Phòng giao dịch,Phòng giao dịch,"Thứ 2-6: Sáng 8h00-11h30, Chiều 13h-16h30",10.800169944763184,106.66510009765625,,
PGD Tân Sơn Nhì,"Số 285-287, Đường Tân Sơn Nhì, Phường Tân Sơn Nhì, Quận Tân Phú, TP Hồ Chí Minh",Phòng giao dịch,Phòng giao dịch,"Thứ 2-6: Sáng 7h30-11h30, Chiều 13h-16h00",10.878549575805664,106.59950256347656,,
PGD Hàng Chiếu,"Tầng 1 và tầng 2 số 45, Phố Hàng Chiếu, Phường Đồng Xuân,, Quận Hoàn Kiếm, TP Hà Nội",Phòng giao dịch,Phòng giao dịch,"Thứ 2-6: Sáng 7h30-11h30, Chiều 13h-17h00",21.037099838256836,105.8510971069336,,
PGD Kim Động,"347, đường Nguyễn Lương Bằng, Thị trấn Lương Bằng, Huyện Kim Động, Tỉnh Hưng Yên",Phòng giao dịch,Phòng giao dịch,"Thứ 2-6: Sáng 7h30-12h00, Chiều 13h30-17h00",20.73603057861328,106.05799865722656,,
PGD Hàng Đậu,"Số 14, Phố Hàng Đậu, Phường Đồng Xuân, Quận Hoàn Kiếm, TP Hà Nội",Phòng giao dịch,Phòng giao dịch,"Thứ 2-6: Sáng 7h30-11h30, Chiều 13h-17h00",21.040489196777344,105.84919738769531,,
PGD Tân Túc,"E3/5, Đường Nguyễn Hữu Trí, Ấp 5, Tổ 3, Thị trấn Tân Túc, Huyện Bình Chánh, TP Hồ Chí Minh",Phòng giao dịch,Phòng giao dịch,"Thứ 2-6: Sáng 7h30-11h30, Chiều 13h-17h00",10.694029808044434,106.58380126953125,,
PGD Hàng Giấy,"Số 59-61, Phố Hàng Giấy, Phường Đồng Xuân, Quận Hoàn Kiếm, TP Hà Nội",Phòng giao dịch,Phòng giao dịch,"Thứ 2-6: Sáng 7h30-11h30, Chiều 13h-17h00",21.038850784301758,105.84850311279297,,
PGD Tân Xuân,"Số 204A, Đường Lê Thị Hà, Ấp Chánh 1, Xã Tân Xuân, Huyện Hóc Môn, TP Hồ Chí Minh",Phòng giao dịch,Phòng giao dịch,"Thứ 2-6: Sáng 7h30-11h30, Chiều 13h-16h30",10.876409530639648,106.5990982055664,,
PGD Tao Đàn,"Số 129B, Đường Cách Mạng Tháng Tám, Phường 5, Quận 3, TP Hồ Chí Minh",Phòng giao dịch,Phòng giao dịch,"Thứ 2-6: Sáng 7h30-11h30, Chiều 13h-17h00",10.774009704589844,106.6886978149414,,
PGD Hào Nam,"Số 114, Phố Hào Nam, Phường Ô Chợ Dừa, Quận Đống Đa, TP Hà Nội",Phòng giao dịch,Phòng giao dịch,"Thứ 2-6: Sáng 7h30-11h30, Chiều 13h-17h00",21.025920867919922,105.82759857177734,,
PGD Thanh Niên,"Số 102A-102B, Đường An Dương Vương, Phường 9, Quận 5, TP Hồ Chí Minh",Phòng giao dịch,Phòng giao dịch,"Thứ 2-6: Sáng 7h30-11h30, Chiều 13h-16h00",10.75691032409668,106.67030334472656,,
PGD Hinode,"Số 201, đường Minh Khai, Phường Minh Khai, Quận Hai Bà Trưng, TP Hà Nội",Phòng giao dịch,Phòng giao dịch,"Thứ 2-6: Sáng 7h30-11h30, Chiều 13h-17h00",20.996429443359375,105.86139678955078,,
PGD Hồ Tây,"Nhà A4, số 128, Phố Thụy Khuê, Phường Thuỵ Khuê, Quận Tây Hồ, TP Hà Nội",Phòng giao dịch,Phòng giao dịch,"Thứ 2-6: Sáng 8h-11h30, Chiều 13h-16h30",21.04254913330078,105.82469940185547,,
PGD Hoà Bình,"Toà nhà Hoà Bình Green City, số 505 Phố Minh Khai, Phường Vĩnh Tuy, Quận Hai Bà Trưng, TP Hà Nội",Phòng giao dịch,Phòng giao dịch,"Thứ 2-6: Sáng 7h30-11h30, Chiều 13h-17h00",20.999380111694336,105.87010192871094,,
PGD Thảo Điền,"Số 82 Xuân Thủy, Phường Thảo Điền, TP Thủ Đức, TP Hồ Chí Minh",Phòng giao dịch,Phòng giao dịch,"Thứ 2-6: Sáng 7h30-11h30, Chiều 13h-17h00",10.803500175476074,106.73390197753906,,
PGD Di Linh,"Số 29-31, Đường Lý Thường Kiệt, Thị trấn Di Linh, Huyện Di Linh, Lâm Đồng",Phòng giao dịch,Phòng giao dịch,"Thứ 2-6: Sáng 7h30-11h30, Chiều 13h-17h00",11.581600189208984,108.07579803466797,,
PGD Hoà Lạc,"Thôn 9, Xã Thạch Hoà, Huyện Thạch Thất, TP Hà Nội",Phòng giao dịch,Phòng giao dịch,"Thứ 2-6: Sáng 8h00-12h00, Chiều 13h30-16h30",21.026670455932617,105.51920318603516,,
PGD Thị Nghè,"Số 37, Đường Xô Viết Nghệ Tĩnh, Phường 17, Quận Bình Thạnh, TP Hồ Chí Minh",Phòng giao dịch,Phòng giao dịch,"Thứ 2-6: Sáng 7h30-11h30, Chiều 13h-16h30",10.793100357055664,106.70760345458984,,
PGD Hưng Hà,"Khu Nhân Cầu 3, Thị trấn Hưng Hà, Huyện Hưng Hà, Thái Bình",Phòng giao dịch,Phòng giao dịch,"Thứ 2-6: Sáng 7h30-11h30, Chiều 13h00-16h00",20.590679168701172,106.22339630126953,,
PGD Tiên Phong,"Số 41-43 đường Hoàng Văn Thụ, Phường 15, Quận Phú Nhuận, TP Hồ Chí Minh",Phòng giao dịch,Phòng giao dịch,"Thứ 2-6: Sáng 7h30-11h30, Chiều 13h-17h00",10.799050331115723,106.6791000366211,,
PGD Hoàng Quốc Việt,"Số 106, Đường Hoàng Quốc Việt, Phường Nghĩa Đô, Quận Cầu Giấy, TP Hà Nội",Phòng giao dịch,Phòng giao dịch,"Thứ 2-6: Sáng 7h30-11h30, Chiều 13h-17h00",21.046350479125977,105.79509735107422,,
PGD Khâm Thiên,"Số 164-166, phố Khâm Thiên, Phường Khâm Thiên, Quận Đống Đa, TP Hà Nội",Phòng giao dịch,Phòng giao dịch,"Thứ 2-6: Sáng 8h00-11h30, Chiều 13h-16h30",21.019250869750977,105.83619689941406,,
PGD Minh Khai,"Số 96, Đường Nguyễn Thị Minh Khai, Phường Bồ Xuyên, TP Thái Bình, Tỉnh Thái Bình",Phòng giao dịch,Phòng giao dịch,"Thứ 2-6: Sáng 7h30-11h30, Chiều 13h30-16h30",20.45075035095215,106.33899688720703,,
PGD Khu đô Thị Yên Hoà,"Lô A1, Khu đô thị Yên Hoà, Phường Yên Hoà, Quận Cầu Giấy, TP Hà Nội",Phòng giao dịch,Phòng giao dịch,"Thứ 2-6: Sáng 7h30-11h30, Chiều 13h-17h00",21.020750045776367,105.7957992553711,,
PGD Trần Hưng Đạo,"Số 542, Đường Trần Hưng Đạo, Phường 2, Quận 5, TP Hồ Chí Minh",Phòng giao dịch,Phòng giao dịch,"Thứ 2-6: Sáng 7h30-11h30, Chiều 13h-17h00",10.755339622497559,106.68109893798828,,
PGD Trần Quốc Thảo,"Số 173, Đường Trần Quốc Thảo, Phường 9, Quận 3, TP Hồ Chí Minh",Phòng giao dịch,Phòng giao dịch,"Thứ 2-6: Sáng 7h30-11h30, Chiều 13h-17h00",10.785079956054688,106.68240356445312,,
PGD Hoà Trung,"Thôn 4, Xã Hoà Ninh, Huyện Di Linh, Lâm Đồng",Phòng giao dịch,Phòng giao dịch,"Thứ 2-6: Sáng 7h30-11h30, Chiều 13h-17h00",11.538769721984863,107.94229888916016,,
PGD Trần Lãm,"Số 328, Đường Lý Thường Kiệt, Phường Trần Lãm, TP Thái Bình, Tỉnh Thái Bình",Phòng giao dịch,Phòng giao dịch,"Thứ 2-6: Sáng 7h30-11h30, Chiều 13h30-16h30",20.444660186767578,106.35289764404297,,
PGD Kim Mã,"Số 521 Kim Mã, Phường Ngọc Khánh, Quận Ba Đình, TP Hà Nội",Phòng giao dịch,Phòng giao dịch,"Thứ 2-6: Sáng 8h00-12h00, Chiều 13h-17h00",21.029359817504883,105.8115005493164,,
PGD Liên Nghĩa,"Số 376 tổ 15, khu 2, Quốc lộ 20, TT. Liên Nghĩa, huyện Đức Trọng, tỉnh Lâm Đồng",Phòng giao dịch,Phòng giao dịch,"Thứ 2-6: Sáng 7h30-11h30, Chiều 13h-17h00",11.733570098876953,108.37370300292969,,
PGD Lộc An,"Thôn 1, Quốc lộ 20, Xã Lộc An, Huyện Bảo Lâm, Lâm Đồng",Phòng giao dịch,Phòng giao dịch,"Thứ 2-6: Sáng 7h30-11h30, Chiều 13h-17h00",11.545900344848633,107.89939880371094,,
PGD Lộc Châu,"Số 1407, Đường Trần Phú, Xã Lộc Châu, Bảo Lộc, Lâm Đồng",Phòng giao dịch,Phòng giao dịch,"Thứ 2-6: Sáng 7h30-11h30, Chiều 13h-17h00",11.535189628601074,107.7844009399414,,
PGD Tân Hà,"Thôn Liên Trung, xã Tân Hà, huyện Lâm Hà, tỉnh Lâm Đồng",Phòng giao dịch,Phòng giao dịch,"Thứ 2-6: Sáng 7h30-11h30, Chiều 13h-17h00",11.7475004196167,108.2042007446289,,
PGD Võ Văn Ngân,"Số 135, Đường Võ Văn Ngân, Phường Linh Chiểu, Quận Thủ Đức, TP Hồ Chí Minh",Phòng giao dịch,Phòng giao dịch,"Thứ 2-6: Sáng 7h30-11h30, Chiều 13h-17h00",10.850600242614746,106.76139831542969,,
PGD Làng Quốc Tế Thăng Long,"Tầng 1, nhà B2B Làng Quốc tế Thăng Long, Đường Trần Đăng Ninh, Phường Dịch Vọng, Quận Cầu Giấy, TP Hà Nội",Phòng giao dịch,Phòng giao dịch,"Thứ 2-6: Sáng 7h30-11h30, Chiều 13h-17h00",21.040889739990234,105.79139709472656,,
PGD Võ Văn Tần,"Số 419-419A, Đường Võ Văn Tần, Phường 5, Quận 3, TP Hồ Chí Minh",Phòng giao dịch,Phòng giao dịch,"Thứ 2-6: Sáng 7h30-11h30, Chiều 13h-17h00",10.769530296325684,106.68399810791016,,
PGD Thăng Long,"Khu phố Đông Anh I, thị trấn Nam Ban, huyện Lâm Hà, tỉnh Lâm Đồng",Phòng giao dịch,Phòng giao dịch,"Thứ 2-6: Sáng 7h30-11h30, Chiều 13h-17h00",11.85000991821289,108.34639739990234,,
PGD Tùng Lâm,"Số 28 đường Xô Viết Nghệ Tĩnh, Phường 7, Đà Lạt, Lâm Đồng",Phòng giao dịch,Phòng giao dịch,"Thứ 2-6: Sáng 7h30-11h30, Chiều 13h-17h00",11.971039772033691,108.42720031738281,,
PGD Láng Thượng,"Lô 04A Láng Thượng, Phường Láng Thượng, Quận Đống Đa, TP Hà Nội",Phòng giao dịch,Phòng giao dịch,"Thứ 2-6: Sáng 7h30-11h30, Chiều 13h-17h00",21.02164077758789,105.80400085449219,,
PGD Vĩnh Trụ,"Số 70, Đường Trần Hưng Đạo, Thị trấn Vĩnh Trụ, Huyện Lý Nhân, Hà Nam",Phòng giao dịch,Phòng giao dịch,"Thứ 2-6: Giờ mùa hè: Sáng 7h30-11h30, Chiều 13h-17h00. Giờ mùa Đông: Sáng 8 giờ - 12 giờ Chiều 13 giờ - 17 giờ",20.558809280395508,106.03170013427734,,
PGD Lê Đại Hành,"Toà nhà Gelex, Số 52, Phố Lê Đại Hành, Phường Lê Đại Hành, Quận Hai Bà Trưng, TP Hà Nội",Phòng giao dịch,Phòng giao dịch,"Thứ 2-6: Sáng 7h30-11h30, Chiều 13h-17h00",21.01188087463379,105.8479995727539,,
PGD Bình Long,"Số 107, Đường Nguyễn Huệ, Phường An Lộc, Thị xã Bình Long, Bình Phước",Phòng giao dịch,Phòng giao dịch,"Thứ 2-6: Sáng 7h30-11h30, Chiều 13h-17h00",11.656689643859863,106.6094970703125,,
PGD Chơn Thành,"Số 11, Khu phố Trung Lợi, Thị trấn Chơn Thành, Thị xã Chơn Thành, Bình Phước",Phòng giao dịch,Phòng giao dịch,"Thứ 2-6: Sáng 7h30-11h30, Chiều 13h-17h00",11.424989700317383,106.63189697265625,,
PGD Lê Đức Thọ,"Toà nhà Cland Tower, số 81, Đường Lê Đức Thọ, Phường Mỹ Đình 2, Quận Nam Từ Liêm, TP Hà Nội",Phòng giao dịch,Phòng giao dịch,"Thứ 2-6: Sáng 8h00-12h00, Chiều 13h30-16h30",21.030149459838867,105.76930236816406,,
PGD Đồng Phú,"450 ĐT741 giao đường Nguyễn Văn Linh, tổ 21, khu phố Tân An, Tân Phú, Đồng Phú, Bình Phước",Phòng giao dịch,Phòng giao dịch,"Thứ 2-6: Sáng 7h30-11h30, Chiều 13h-17h00",11.477840423583984,106.8833999633789,,
PGD Phước Long,"Số 115, Đường 6/1, Phường Long Thủy, Thị xã Phước Long, Bình Phước",Phòng giao dịch,Phòng giao dịch,"Thứ 2-6: Sáng 7h30-11h30, Chiều 13h-17h00",11.841429710388184,106.99469757080078,,
PGD Liên Hà,"Số 58, Khu Thị tứ Liên Hà, Xã Liên Hà, Huyện Đông Anh, TP Hà Nội",Phòng giao dịch,Phòng giao dịch,"Thứ 2-6: Sáng 8h00-11h30, Chiều 13h-17h00",21.148210525512695,105.89360046386719,,
PGD Gò Dầu,"Số 49A, Quốc lộ 22B, Khu phố nội A, Thị trấn Gò Dầu, Huyện Gò Dầu, Tây Ninh",Phòng giao dịch,Phòng giao dịch,"Thứ 2-6: Sáng 7h30-11h30, Chiều 13h-16h00",11.099989891052246,106.26239776611328,,
PGD Linh Đàm,"Kiốt 10, Chung cư Nơ 7B, Bán đảo Linh Đàm, Phường Hoàng Liệt, Quận Hoàng Mai, TP Hà Nội",Phòng giao dịch,Phòng giao dịch,"Thứ 2-6: Sáng 8h00-11h30, Chiều 13h-17h00",20.963300704956055,105.83000183105469,,
PGD Hoà Thành,"Số 60, Đường Hùng Vương, Khu Phố 4, Phường Long Hoa, Thị xã Hoà Thành, Tây Ninh",Phòng giao dịch,Phòng giao dịch,"Thứ 2-6: Sáng 7h00-11h30, Chiều 13h30-16h00",11.287870407104492,106.12940216064453,,
PGD Tân Biên,"Số 77-79, Đường Phạm Hùng, KP2, Thị trấn Tân Biên, Huyện Tân Biên, Tỉnh Tây Ninh",Phòng giao dịch,Phòng giao dịch,"Thứ 2-6: Sáng 7h30-11h30, Chiều 13h-16h00",11.545610427856445,106.00309753417969,,
PGD Lương Định Của,"Số 85, Phố Lương Đình Của, Phường Phương Mai, Quận Đống Đa, TP Hà Nội",Phòng giao dịch,Phòng giao dịch,"Thứ 2-6: Sáng 7h30-11h30, Chiều 13h-17h00",21.00217056274414,105.83609771728516,,
PGD Lý Nam Đế,"Số 34D, Phố Lý Nam Đế, Phường Cửa Đông, Quận Hoàn Kiếm, TP Hà Nội",Phòng giao dịch,Phòng giao dịch,"Thứ 2-6: Sáng 7h30-11h30, Chiều 13h-17h00",21.03936004638672,105.84600067138672,,
PGD Mễ Trì,"B014, Tầng 1, Tòa nhà The Manor KĐTM Mỹ Đình, Phường Mễ Trì, Quận Nam Từ Liêm, TP Hà Nội",Phòng giao dịch,Phòng giao dịch,"Thứ 2-6: Sáng 7h30-11h30, Chiều 13h-17h00",21.01435089111328,105.77690124511719,,
PGD Bình An,"40 Đường Nguyễn Thị Minh Khai, Khu phố Tân Long, Phường Tân Đông Hiệp, TP Dĩ An, Tỉnh Bình Dương",Phòng giao dịch,Phòng giao dịch,"Thứ 2-6: Sáng 8h00-11h30, Chiều 13h-16h30",10.91748046875,106.75250244140625,,
PGD Minh Khai,"Tầng 2 và tầng 3, số 28+30 Phố Minh Khai, Phường Trương Định, Quận Hai Bà Trưng, TP Hà Nội",Phòng giao dịch,Phòng giao dịch,"Thứ 2-6: Sáng 7h30-11h30, Chiều 13h-17h00",20.99625015258789,105.85040283203125,,
PGD Gián Khẩu,"Số 55, Quốc lộ 1A, Thị trấn Gián Khẩu, Huyện Gia Viễn, Tỉnh Ninh Bình",Phòng giao dịch,Phòng giao dịch,"Thứ 2-6: Mùa hè: Sáng 7h30-11h30, Chiều 13h30-16h30. Mùa đông: Sáng 8h00-11h30, Chiều 13h00-16h30",20.325599670410156,105.9259033203125,,
PGD 17-8,"Số 374, Tổ 7, Đường 17-8, Phường Phan Thiết, Thành phố Tuyên Quang, Tuyên Quang",Phòng giao dịch,Phòng giao dịch,Thứ 2-6: Sáng 7h30-12h Chiều 13h30-17h00,21.82461929321289,105.20469665527344,,
PGD Nam Cao,"Ki ôt kinh doanh TMDV 102, Tầng 1 nhà B6 Giảng Võ, B6 Phố Nam Cao, Phường Giảng Võ, Quận Ba Đình, Thành Phố Hà Nội, Việt Nam",Phòng giao dịch,Phòng giao dịch,"Thứ 2-6: Sáng 7h30-11h30, Chiều 13h-17h00",21.02924919128418,105.82119750976562,,
PGD Hàm Yên,"Số 360 TDP Tan An, , Tân Yên, Hàm Yên, Tuyên Quang",Phòng giao dịch,Phòng giao dịch,"Thứ 2-6: Sáng 8h-12h, Chiều 13h30-17h00",22.05868911743164,105.03260040283203,,
PGD Nam Thăng Long,"Tầng 1, tòa 27A3 dự án Green Stars, KĐT TP giao lưu, số 234, Đường Phạm Văn Đồng, Phường Cổ Nhuế 1, Quận Bắc Từ Liêm, TP Hà Nội",Phòng giao dịch,Phòng giao dịch,"Thứ 2-6: Sáng 8h-12h, Chiều 13h-16h",21.05207061767578,105.78089904785156,,
PGD Hoà Phú,"Số 28 Đường Lê Duẩn, Phường Hoà Phú, Thành phố Thủ Dầu Một, Bình Dương",Phòng giao dịch,Phòng giao dịch,"Thứ 2-6: Sáng 7h30-11h30, Chiều 13h-17h00",11.059020042419434,106.68229675292969,,
PGD Nam Thành Công,"Tầng 1, Toà nhà Vinaconex, Số 34, Đường Láng Hạ, Phường Láng Hạ, Quận Đống Đa, TP Hà Nội",Phòng giao dịch,Phòng giao dịch,"Thứ 2-6: Sáng 7h30-11h30, Chiều 13h-17h00",21.01464080810547,105.81330108642578,,
PGD Sơn Dương,"325, Thị trấn Sơn Dương, Huyện Sơn Dương, Tỉnh Tuyên Quang",Phòng giao dịch,Phòng giao dịch,"Thứ 2-6: Sáng 8h-12h, Chiều 13h30-17h00",21.696819305419922,105.39140319824219,,
PGD Nho Quan,"Phố Bắc Sơn, Quốc lộ 12B, Thị trấn Nho Quan, Huyện Nho Quan, Ninh Bình",Phòng giao dịch,Phòng giao dịch,"Thứ 2-6: Mùa hè: Sáng 8h00-11h30, Chiều 13h00-16h00. Mùa đông: Sáng 8h15-11h30, Chiều 13h00-16h00",20.320959091186523,105.75019836425781,,
PGD Tân Bình,"Thôn 1, Xã Đội Cấn, Thành phố Tuyên Quang, Tuyên Quang",Phòng giao dịch,Phòng giao dịch,"Thứ 2-6: Sáng 8h-12h, Chiều 13h30-17h00",21.702590942382812,105.22440338134766,,
PGD Nam Từ Liêm,"Kiôt C3-3, tầng 1, chung cư C3, khu đô thị Mỹ Đình I, đường Nguyễn Cơ Thạch, Phường Cầu Diễn, Quận Nam Từ Liêm, TP Hà Nội",Phòng giao dịch,Phòng giao dịch,"Thứ 2-6: Sáng 7h30-11h30, Chiều 13h-17h00",21.031909942626953,105.76490020751953,,
PGD Thành Phố,"Số 68, Đường Chiến Thắng Sông Lô, Phường Tân Quang, Thành phố Tuyên Quang, Tuyên Quang",Phòng giao dịch,Phòng giao dịch,"Thứ 2-6: Sáng 7h30-12h, Chiều 13h30-17h00",21.81492042541504,105.21589660644531,,
PGD Đinh Công Tráng,"Số 501, Phố Lê Hoàn, Phường Ngọc Trạo, TP Thanh Hoá, Tỉnh Thanh Hoá",Phòng giao dịch,Phòng giao dịch,"Thứ 2-6: Sáng 7h30-11h30, Chiều 13h-17h00",19.799030303955078,105.7781982421875,,
PGD Tân Bình,"DT747 Ấp 1, Phường Hội Nghĩa, TP Tân Uyên, Tỉnh Bình Dương",Phòng giao dịch,Phòng giao dịch,"Thứ 2-6: Sáng 7h30-11h30, Chiều 13h-17h00",11.10006046295166,106.76809692382812,,
PGD Nghĩa Đô,"Tầng 1, Toà nhà CT2A, Khu Đô thị mới Cổ Nhuế, Phường Cổ Nhuế 1, Quận Bắc Từ Liêm, TP Hà Nội",Phòng giao dịch,Phòng giao dịch,"Thứ 2-6: Sáng 7h30-11h30, Chiều 13h-17h00",21.050270080566406,105.78479766845703,,
PGD Đội Cung,"Số 100, Phố Trường Thi, Phường Trường Thi, Thành phố Thanh Hoá, Thanh Hoá",Phòng giao dịch,Phòng giao dịch,"Thứ 2-6: Sáng 7h30-11h30, Chiều 13h-17h00",19.816579818725586,105.783203125,,
PGD Tân Uyên,"Thửa đất số 8+9, tờ bản đồ số 10, Đường ĐT747, Tổ 1, Khu phố 4, Phường Uyên Hưng, TP Tân Uyên, Tỉnh Bình Dương",Phòng giao dịch,Phòng giao dịch,"Thứ 2-6: Sáng 7h30-11h30, Chiều 13h-17h00",11.0589599609375,106.7916030883789,,
PGD Nghĩa Tân,"Tầng 1, tòa nhà 184, Đường Hoàng Quốc Việt, Phường Cổ Nhuế 1, Quận Bắc Từ Liêm, TP Hà Nội",Phòng giao dịch,Phòng giao dịch,"Thứ 2-6: Sáng 7h30-11h30, Chiều 13h-17h00",21.046310424804688,105.78910064697266,,
PGD Ngô Thì Nhậm,"Số 58A, Phố Ngô Thì Nhậm, Phường Ngô Thì Nhậm, Quận Hai Bà Trưng, TP Hà Nội",Phòng giao dịch,Phòng giao dịch,"Thứ 2-6: Sáng 7h30-11h30, Chiều 13h-17h00",21.016510009765625,105.85289764404297,,
PGD Đông Vệ,"Số 387, Đường Quang Trung, Phường Đông Vệ, TP Thanh Hoá, Tỉnh Thanh Hoá",Phòng giao dịch,Phòng giao dịch,"Thứ 2-6: Sáng 7h30-11h30, Chiều 13h-17h00",19.782190322875977,105.77639770507812,,
PGD Hà Trung,"Tiểu khu 3, Quốc lộ 1A, Thị trấn Hà Trung, Huyện Hà Trung, Thanh Hoá",Phòng giao dịch,Phòng giao dịch,"Thứ 2-6: Sáng: 7h30 - 11h30, Chiều: 13h30 - 17h00",19.98328971862793,105.84439849853516,,
PGD Ngoại Giao Đoàn,"Tầng 1, Tổ hợp chung cư cao tầng N02-T3, khu Ngoại giao đoàn, Phường Xuân Tảo, Quận Bắc Từ Liêm, TP Hà Nội",Phòng giao dịch,Phòng giao dịch,"Thứ 2-6: Sáng 7h30-11h30, Chiều 13h-17h00",21.064979553222656,105.80049896240234,,
PGD Hoằng Hoá,"Số 396B, Đường ĐH-HH 40 Phố Vinh Sơn, Thị trấn Bút Sơn, Huyện Hoằng Hoá, Tỉnh Thanh Hoá",Phòng giao dịch,Phòng giao dịch,"Thứ 2-6: Sáng: 8h00 : 11h30, Chiều: 13h30 : 17h00",19.85024070739746,105.85250091552734,,
PGD An Phước,"Đường Phùng Hưng, Ấp 7, Xã An Phước, Huyện Long Thành, Đồng Nai",Phòng giao dịch,Phòng giao dịch,"Thứ 2-6: Sáng 7h30-11h30, Chiều 13h-17h00",10.858819961547852,106.95120239257812,,
PGD Lê Hữu Lập,"Số 47, Phố Lê Hữu Lập, Phường Lam Sơn, TP Thanh Hoá, Tỉnh Thanh Hoá",Phòng giao dịch,Phòng giao dịch,"Thứ 2-6: Sáng 7h30-11h30, Chiều 13h30-16h15",19.804569244384766,105.77989959716797,,
PGD Lê Lai,"Số 231, Đường Lê Lai, Phường Đông Sơn, TP Thanh Hoá, Tỉnh Thanh Hoá",Phòng giao dịch,Phòng giao dịch,"Thứ 2-6: Sáng 7h30-11h30, Chiều 13h30-16h15",19.79490089416504,105.79340362548828,,
PGD Đồng Khởi,"Số 7, Đường Hoàng Minh Châu, Phường Quang Vinh, TP Biên Hoà, Tỉnh Đồng Nai",Phòng giao dịch,Phòng giao dịch,"Thứ 2-6: Sáng 7h30-11h30, Chiều 13h-17h00",10.948659896850586,106.8134994506836,,
PGD Long Khánh,"Số 6, Đường Nguyễn Trãi, KP 5, Phường Xuân Hoà, Long Khánh, Đồng Nai",Phòng giao dịch,Phòng giao dịch,"Thứ 2-6: Sáng 7h30-11h30, Chiều 13h-17h00",10.922080039978027,107.24089813232422,,
PGD Nguyễn An Ninh,"Số 118, Phố Nguyễn An Ninh, Phường Tương Mai, Quận Hoàng Mai, TP Hà Nội",Phòng giao dịch,Phòng giao dịch,"Thứ 2-6: Sáng 7h30-11h30, Chiều 13h-17h00",20.99138069152832,105.84449768066406,,
PGD Ngọc Trạo,"Số 226, Đường Quang Trung, Phường Ngọc Trạo, Thành phố Thanh Hoá, Thanh Hoá",Phòng giao dịch,Phòng giao dịch,"Thứ 2-6: Sáng 7h30-11h30, Chiều 13h30-16h15",19.79286003112793,105.77680206298828,,
PGD Long Thành,"Số 19, Đường Nguyễn Đình Chiểu, khu Phước Hải, Thị trấn Long Thành, Huyện Long Thành, Đồng Nai",Phòng giao dịch,Phòng giao dịch,"Thứ 2-6: Sáng 7h30-11h30, Chiều 13h-17h00",10.783029556274414,106.95169830322266,,
PGD Nguyễn Chánh,"Tòa nhà CT1 Vimeco, Phường Trung Hoà, Quận Cầu Giấy, TP Hà Nội",Phòng giao dịch,Phòng giao dịch,"Thứ 2-6: Sáng 7h30-11h30, Chiều 13h-17h00",21.008649826049805,105.79450225830078,,
PGD Nguyễn Trãi,"Số 272-274, Đường Nguyễn Trãi, Phường Tân Sơn, Thành phố Thanh Hoá, Thanh Hoá",Phòng giao dịch,Phòng giao dịch,"Thứ 2-6: Sáng 7h30-11h30, Chiều 13h-17h00",19.803730010986328,105.77040100097656,,
PGD Nhơn Trạch,"Đường Tôn Đức Thắng, KCN Nhơn Trạch 1, Xã Phước Thiền, Huyện Nhơn Trạch, Đồng Nai",Phòng giao dịch,Phòng giao dịch,"Thứ 2-6: Sáng 7h30-11h30, Chiều 13h-17h00",10.736559867858887,106.93409729003906,,
PGD Sầm Sơn,"Lô số A11-A12, Dự án Khu dân cư, tái định cư Khách sạn Sầm Sơn , Phường Trường Sơn, TP Sầm Sơn, Tỉnh Thanh Hoá",Phòng giao dịch,Phòng giao dịch,"Thứ 2-6: Sáng 7h30-11h30, Chiều 13h-16h15",19.733200073242188,105.89700317382812,,
PGD Nguyễn Hoàng,"Tầng 1, toà nhà Mỹ Đình Plaza 2, số 2, phố Nguyễn Hoàng, Phường Mỹ Đình 2, Quận Nam Từ Liêm, TP Hà Nội",Phòng giao dịch,Phòng giao dịch,"Thứ 2-6: Sáng 7h30-11h30, Chiều 13h-17h00",21.008859634399414,105.8125,,
PGD Phước Thái,"Tổ 7, Ấp 1A, Quốc lộ 51, Xã Phước Thái, Huyện Long Thành, Đồng Nai",Phòng giao dịch,Phòng giao dịch,"Thứ 2-6: Sáng 7h30-11h30, Chiều 13h-17h00",10.66996955871582,107.03189849853516,,
PGD Nguyễn Khang,"Toà nhà chung cư G3AB, Khu đô thị Yên Hoà, Đường Vũ Phạm Hàm, Phường Yên Hoà, Quận Cầu Giấy, TP Hà Nội",Phòng giao dịch,Phòng giao dịch,"Thứ 2-6: Sáng 8h-11h30, Chiều 13h-16h30",21.01934051513672,105.79979705810547,,
PGD Tam Hiệp,"Số 220/11B, Đường Phạm Văn Thuận, Phường Tam Hiệp, TP Biên Hoà, Tỉnh Đồng Nai",Phòng giao dịch,Phòng giao dịch,"Thứ 2-6: Sáng 7h30-11h30, Chiều 13h-17h00",10.952710151672363,106.85359954833984,,
PGD Nguyễn Trãi,"Số 493,Nguyễn Trãi (Tòa nhà Sông Đà), Phường Thanh Xuân Nam, Quận Thanh Xuân, TP Hà Nội",Phòng giao dịch,Phòng giao dịch,"Thứ 2-6: Sáng 8h-11h30, Chiều 13h30-16h30",20.988489151000977,105.79969787597656,,
PGD Tân Hoà,"Số 1/1, Quốc lộ 1A, Khu Phố 6, Phường Tân Hoà, Thành phố Biên Hoà, Đồng Nai",Phòng giao dịch,Phòng giao dịch,"Thứ 2-6: Sáng 7h30-11h30, Chiều 13h-17h00",10.967610359191895,106.9093017578125,,
PGD Tân Uyên,"Khu thương mại và dịch vụ Hoàng Liên, tổ 15, Thị trấn Tân Uyên, Huyện Tân Uyên, Tỉnh Lai Châu",Phòng giao dịch,Phòng giao dịch,"Thứ 2-6: Sáng 7h30-11h30, Chiều 13h-17h00",22.171749114990234,103.75579833984375,,
PGD Nguyễn Tuân,"Tầng 1, tháp B (mặt số 143, Phố Nguyễn Tuân), tòa nhà chung cư Imperia Garden, số 203, Phố Nguyễn Huy Tưởng, Phường Thanh Xuân Trung, Quận Thanh Xuân, TP Hà Nội",Phòng giao dịch,Phòng giao dịch,"Thứ 2-6: Sáng 7h30-11h30, Chiều 13h-17h00",20.998029708862305,105.80329895019531,,
PGD Nguyễn Văn Huyên,"Số 13, Đường Nguyễn Văn Huyên, Phường Quan Hoa, Quận Cầu Giấy, TP Hà Nội",Phòng giao dịch,Phòng giao dịch,"Thứ 2-6: Sáng 8h-11h30, Chiều 13h-16h30",21.036869049072266,105.79789733886719,,
PGD Nhân Chính,"Tổ hợp khu nhà ở dịch vụ thương mại Golden Palace, Ô C3 Trung Hoà - Nhân Chính, số 54, Đường Lê Văn Lương, Phường Nhân Chính, Quận Thanh Xuân, TP Hà Nội",Phòng giao dịch,Phòng giao dịch,"Thứ 2-6: Sáng 7h30-11h30, Chiều 13h-17h00",21.00404930114746,105.80259704589844,,
PGD Chiềng Sinh,"Tầng 1 Tòa nhà Cơ khí, Phường Chiềng Sinh, TP Sơn La, Tỉnh Sơn La",Phòng giao dịch,Phòng giao dịch,"Thứ 2-6: Sáng 7h30-11h30, Chiều 13h30-16h30",21.275880813598633,103.98030090332031,,
PGD Nhật Chiêu,"Số 602, Đường Lạc Long Quân, Tổ 9, Cụm 2, Phường Nhật Tân, Quận Tây Hồ, TP Hà Nội",Phòng giao dịch,Phòng giao dịch,"Thứ 2-6: Sáng 7h30-11h30, Chiều 13h-17h00",21.07628059387207,105.8145980834961,,
PGD Nhật Tân,"Lô 05D6C, Đường Nguyễn Hoàng Tôn, Phường Xuân La, Quận Tây Hồ, TP Hà Nội",Phòng giao dịch,Phòng giao dịch,"Thứ 2-6: Sáng 7h30-11h30, Chiều 13h-17h00",21.069969177246094,105.80999755859375,,
PGD Nội Bài,"Sảnh A2, Tầng 1, Nhà ga T2, Sân bay Nội Bài, Xã Phú Minh, Huyện Sóc Sơn, TP Hà Nội",Phòng giao dịch,Phòng giao dịch,"Thứ 2-6: Sáng 7h30-11h30, Chiều 13h-17h00",21.22018051147461,105.79010009765625,,
PGD Xuân Bình,"Đường Hùng Vương, Phường Xuân Bình, Thành phố Long Khánh, Đồng Nai",Phòng giao dịch,Phòng giao dịch,"Thứ 2-6: Sáng 7h30-11h30, Chiều 13h-17h00",10.937159538269043,107.2405014038086,,
PGD Ô Chợ Dừa,"Số 29, Đường La Thành, Phường Ô Chợ Dừa, Quận Đống Đa, TP Hà Nội",Phòng giao dịch,Phòng giao dịch,"Thứ 2-6: Sáng 7h30-11h30, Chiều 13h-17h00",21.018829345703125,105.82929992675781,,
PGD Phạm Hùng,"Toà nhà CEO lô HH2, số 1, Đường Phạm Hùng, Phường Mễ Trì, Quận Nam Từ Liêm, TP Hà Nội",Phòng giao dịch,Phòng giao dịch,"Thứ 2-6: Sáng 7h30-11h30, Chiều 13h-17h00",21.016490936279297,105.78250122070312,,
PGD Phạm Văn Đồng,"Tòa nhà Bắc Hà, Số 30, Đường Phạm Văn Đồng, Phường Dịch Vọng Hậu, Quận Cầu Giấy, TP Hà Nội",Phòng giao dịch,Phòng giao dịch,"Thứ 2-6: Sáng 7h30-11h30, Chiều 13h-17h00",21.041419982910156,105.77980041503906,,
PGD Phan Đình Phùng,"Số 39C, Phan Đình Phùng, Phường Quán Thánh, Quận Ba Đình, Phường Quán Thánh, Quận Ba Đình, TP Hà Nội",Phòng giao dịch,Phòng giao dịch,"Thứ 2-6: Sáng 7h30-11h30, Chiều 13h-17h00",21.040220260620117,105.84339904785156,,
PGD Phố Huế,"Số 128, Phố Phố Huế, Phường Nguyễn Du, Quận Hai Bà Trưng, TP Hà Nội",Phòng giao dịch,Phòng giao dịch,"Thứ 2-6: Sáng 7h30-11h30, Chiều 13h-17h00",21.014339447021484,105.85169982910156,,
PGD Phù Lỗ,"Số 40 Đường 2, Xã Phù Lỗ, Huyện Sóc Sơn, TP Hà Nội",Phòng giao dịch,Phòng giao dịch,"Thứ 2-6: Sáng 8h00-11h30, Chiều 13h-17h00",21.19906997680664,105.84660339355469,,
PGD Nam Cường,"Số 120, Đường Yên Ninh, Phường Nguyễn Thái Học, TP Yên Bái, Tỉnh Yên Bái",Phòng giao dịch,Phòng giao dịch,"Thứ 2-6: Sáng: 7h30-11h30, Chiều: 13h00-17h",21.717390060424805,104.88059997558594,,
PGD Phúc Thọ,"402 Đường Lạc Trị, Thị trấn Phúc Thọ, Huyện Phúc Thọ, TP Hà Nội",Phòng giao dịch,Phòng giao dịch,"Thứ 2-6: Sáng 7h30-12h00, Chiều 13h30-16h30",21.105369567871094,105.54199981689453,,
PGD Cao Phong,"Khu 5A, Thị trấn Cao Phong, Huyện Cao Phong, Hoà Bình",Phòng giao dịch,Phòng giao dịch,"Thứ 2 đến thứ 6. Mùa hè: buổi sáng từ 07h00 đến 11h30, buổi chiều từ 13h30 đến 16h30. Mùa đông: buổi sáng từ 07h30 đến 11h30, buổi chiều từ 13h00 đến 16h30",20.706409454345703,105.3230972290039,,
PGD Lương Sơn,"Tiểu khu 8, Thị trấn Lương Sơn, Huyện Lương Sơn, Hoà Bình",Phòng giao dịch,Phòng giao dịch,"Thứ 2 đến thứ 6. Mùa hè: buổi sáng từ 07h00 đến 11h30, buổi chiều từ 13h30 đến 17h00. Mùa đông: buổi sáng từ 07h30 đến 11h30, buổi chiều từ 13h00 đến 17h00",20.87095069885254,105.52660369873047,,
PGD Tam Hợp,"Tầng 1, Khách sạn Hoàng Dinh, Xã Tam Hợp, Huyện Quỳ Hợp, Nghệ An",Phòng giao dịch,Phòng giao dịch,"Thứ 2-6: Sáng 7h30-11h30, Chiều 13h-17h00",19.356239318847656,105.28350067138672,,
PGD Royal City,"R5-L1 - TTTM Royal City - số 72, Đường Nguyễn Trãi, Phường Thượng Đình, Quận Thanh Xuân, TP Hà Nội",Phòng giao dịch,Phòng giao dịch,"Thứ 2-6: Sáng 7h30-11h30, Chiều 13h-17h00",21.001510620117188,105.81520080566406,,
PGD Sóc Sơn,"Số 35, Quốc lộ 3, Tổ 12, Thị trấn Sóc Sơn, Huyện Sóc Sơn, TP Hà Nội",Phòng giao dịch,Phòng giao dịch,"Thứ 2-6: Sáng 7h30-11h30, Chiều 13h-17h00",21.259519577026367,105.84870147705078,,
PGD Sông Đà,"Lô số SH1A.3, Đường Trương Hán Siêu, Phường Tân Thịnh, TP Hoà Bình, Tỉnh Hoà Bình",Phòng giao dịch,Phòng giao dịch,"Thứ 2 đến thứ 6. Mùa hè: buổi sáng từ 07h00 đến 11h30, buổi chiều từ 13h30 đến 17h00. Mùa đông: buổi sáng từ 07h30 đến 11h30, buổi chiều từ 13h00 đến 17h00",20.828350067138672,105.34300231933594,,
PGD Sông Hồng,"Số 165, Phố Thái Hà, Phường Láng Hạ, Quận Đống Đa, TP Hà Nội",Phòng giao dịch,Phòng giao dịch,"Thứ 2-6: Sáng 7h30-11h30, Chiều 13h-17h00",21.015050888061523,105.81700134277344,,
PGD Starlake,"Tầng 1, Toà nhà CT1A, khu đô thị mới Nghĩa Đô, ngõ 106, Đường Hoàng Quốc Việt, Phường Cổ Nhuế 1, Quận Bắc Từ Liêm, TP Hà Nội",Phòng giao dịch,Phòng giao dịch,"Thứ 2-6: Sáng 7h30-11h30, Chiều 13h-17h00",21.051759719848633,105.79180145263672,,
PGD Sun City,"Tầng 02, tòa nhà Sun Grand City Ancora, s6 03 Lương Yên, Phường Bạch Đằng, Quận Hai Bà Trưng, TP Hà Nội",Phòng giao dịch,Phòng giao dịch,"Từ Thứ 2-6: Sáng: 8h-11h30, Chiều: 13h00-16h30",21.011369705200195,105.86299896240234,,
PGD Bến Lức,"Số 34A, Đường Nguyễn Hữu Thọ, Thị trấn Bến Lức, Huyện Bến Lức, Long An",Phòng giao dịch,Phòng giao dịch,"Thứ 2-6: Sáng 7h30-11h30, Chiều 13h-17h00",10.637080192565918,106.48909759521484,,
PGD Tam Trinh,"Số 18, Đường Tam Trinh, Phường Minh Khai, Quận Hai Bà Trưng, TP Hà Nội",Phòng giao dịch,Phòng giao dịch,"Thứ 2-6: Sáng 7h30-11h30, Chiều 13h-17h00",20.995229721069336,105.86190032958984,,
PGD Bình Phong Thạnh,"Đường tỉnh 817, khu phố 2, tt Bình Phong Thạnh, Huyện Mộc Hoá, Tỉnh Long An",Phòng giao dịch,Phòng giao dịch,"Thứ 2-6: Sáng 7h30-11h30, Chiều 13h-17h00",10.728540420532227,106.05840301513672,,
PGD Cần Đước,"Số 139, Tỉnh lộ 826, ấp 4, Xã Long Hoà, Huyện Cần Đước, Long An",Phòng giao dịch,Phòng giao dịch,"Thứ 2-6: Sáng 7h30-11h30, Chiều 13h-17h00",10.586779594421387,106.58899688720703,,
PGD Cẩm Xuyên,"Tổ dân phố 13, Thị trấn Cẩm Xuyên, Huyện Cẩm Xuyên, Hà Tĩnh",Phòng giao dịch,Phòng giao dịch,"Thứ 2-6: Sáng 7h00-11h15, Chiều 14h-17h15",18.250789642333984,105.9999008178711,,
PGD Tân Mai,"Số 104-106, Phố Tân Mai, Phường Tân Mai, Quận Hoàng Mai, TP Hà Nội",Phòng giao dịch,Phòng giao dịch,"Thứ 2-6: Sáng 7h30-11h30, Chiều 13h-17h00",20.983640670776367,105.8489990234375,,
PGD Cần Giuộc,"Số 69, Quốc lộ 50, Khu Phố 2, Thị trấn Cần Giuộc, Huyện Cần Giuộc, Long An",Phòng giao dịch,Phòng giao dịch,"Thứ 2-6: Sáng 7h30-11h30, Chiều 13h-17h00",10.607049942016602,106.67140197753906,,
PGD Tân Xuân,"Tầng 1, Toà nhà Simco, Số 9, Phố Đỗ Nhuận, Phường Xuân Đỉnh, Quận Bắc Từ Liêm, TP Hà Nội",Phòng giao dịch,Phòng giao dịch,"Thứ 2-6: Sáng 7h30-11h30, Chiều 13h-17h00",21.06591033935547,105.78910064697266,,
PGD Châu Thành,"Số 190, Đường Đỗ Tường Phong, Khu phố 1, Thị trấn Tầm Vu, Huyện Châu Thành, Long An",Phòng giao dịch,Phòng giao dịch,"Thứ 2-6: Sáng 7h30-11h30, Chiều 13h-17h00",10.44734001159668,106.46769714355469,,
PGD Hoành Sơn,"TDP Liên Phú, Phường Kỳ Liên, TX Kỳ Anh, Tỉnh Hà Tĩnh",Phòng giao dịch,Phòng giao dịch,"Thứ 2-6: Sáng 7h00-11h15, Chiều 14h-17h15",18.023000717163086,106.40370178222656,,
PGD Đức Hoà,"Số 530C, Đường tỉnh 825, Khu vực 3, Thị trấn Đức Hoà, Huyện Đức Hoà, Long An",Phòng giao dịch,Phòng giao dịch,"Thứ 2-6: Sáng 7h30-11h30, Chiều 13h-17h00",10.820659637451172,106.46209716796875,,
PGD Hậu Nghĩa,"Tỉnh lộ 8, Ô 7, Khu B, Thị trấn Hậu Nghĩa, Huyện Đức Hoà, Long An",Phòng giao dịch,Phòng giao dịch,"Thứ 2-6: Sáng 7h00-11h30, Chiều 13h30-17h00",10.895179748535156,106.39610290527344,,
PGD Thạch Thất,"Tòa nhà Đa Liên, cụm CN Bình Phú, Xã Bình Phú, Huyện Thạch Thất, TP Hà Nội",Phòng giao dịch,Phòng giao dịch,"Thứ 2-6: Sáng 8h00-12h00, Chiều 13h30-16h30",21.017099380493164,105.61309814453125,,
PGD Quán Triều,"Số 618, Đường Dương Tự Minh, Phường Quán Triều, Thành phố Thái Nguyên, Thái Nguyên",Phòng giao dịch,Phòng giao dịch,"Thứ 2-6: Sáng 7h30-11h30, Chiều 13h-17h00",21.610340118408203,105.810302734375,,
PGD Tân An,"Số 25, Đường Trà Quý Bình, Phường 1, Thành phố Tân An, Long An",Phòng giao dịch,Phòng giao dịch,"Thứ 2-6: Sáng 7h30-11h30, Chiều 13h-17h00",10.537910461425781,106.40709686279297,,
PGD Tân Thạnh,"Số 197-199, Quốc lộ 62,  Khu phố 3, Thị trấn Tân Thạnh, Huyện Tân Thạnh, Long An",Phòng giao dịch,Phòng giao dịch,"Thứ 2-6: Sáng 7h30-11h30, Chiều 13h-17h00",10.611310005187988,106.04730224609375,,
PGD Kỳ Đồng,"Thôn Đồng Phú, Xã Kỳ Đồng, Kỳ Anh, Hà Tĩnh",Phòng giao dịch,Phòng giao dịch,"Thứ 2-6: Sáng 7h00-11h15, Chiều 14h-17h15",18.167179107666016,106.22779846191406,,
PGD Tân Trụ,"Số 131, Đường Nguyễn Trung Trực, Ấp Tân Bình, Thị trấn Tân Trụ, Huyện Tân Trụ, Long An",Phòng giao dịch,Phòng giao dịch,"Thứ 2-6: Sáng 7h30-11h30, Chiều 13h-17h00",10.518529891967773,106.51860046386719,,
PGD Thành phố,"Tòa nhà BMC Plaza Hà Tĩnh, số 06 Đường Phan Đình Phùng, Phường Nam Hà , Thành phố Hà Tĩnh, Hà Tĩnh",Phòng giao dịch,Phòng giao dịch,"Thứ 2-6: Sáng 7h30-11h30, Chiều 13h-17h00",18.33786964416504,105.89679718017578,,
PGD Thạnh Hoá,"đường Nguyễn Văn Khánh , Khu phố 3, Thị trấn Thạnh Hoá, Thạnh Hoá, Long An",Phòng giao dịch,Phòng giao dịch,"Thứ 2-6: Sáng 7h30-11h30, Chiều 13h-17h00",10.657990455627441,106.18270111083984,,
PGD Ba Đồn,"Số 86, Đường Hùng Vương, Phường Ba Đồn, Thị xã Ba Đồn, Quảng Bình",Phòng giao dịch,Phòng giao dịch,"Thứ 2-6: Sáng 7h30-11h30, Chiều 13h30-17h00",17.75316047668457,106.42289733886719,,
PGD Bắc Lý,"416 Lý Thường Kiệt, Phường Bắc Lý, TP Đồng Hới, Tỉnh Quảng Bình",Phòng giao dịch,Phòng giao dịch,"Thứ 2-6: Sáng 7h30-11h30, Chiều 13h-17h00",17.487180709838867,106.60079956054688,,
PGD Vĩnh Hưng,"Số 34-36, Đường Long Khốt. Khu Phố Măng Đa, Thị trấn Vĩnh Hưng, Huyện Vĩnh Hưng, Long An",Phòng giao dịch,Phòng giao dịch,"Thứ 2-6: Sáng 7h30-11h30, Chiều 13h-17h00",10.891420364379883,105.78800201416016,,
PGD Thành Thái,"Tầng 1, Tòa N09B1, Khu đô thị mới Dịch Vọng, Phường Dịch Vọng, Quận Cầu Giấy, TP Hà Nội",Phòng giao dịch,Phòng giao dịch,"Thứ 2-6: Sáng 8h-12h, Chiều 13h-16h",21.028730392456055,105.79440307617188,,
PGD Bố Trạch,"Tiểu khu 12, Thị trấn Hoàn Lão, Huyện Bố Trạch, Quảng Bình",Phòng giao dịch,Phòng giao dịch,"Thứ 2-6: Sáng 7h30-11h30, Chiều 13h-17h00",17.58135986328125,106.53600311279297,,
PGD Cái Bè,"Số 349, Đường Nguyễn Chí Công, khu 4, Thị trấn Cái Bè, Huyện Cái Bè, Tiền Giang",Phòng giao dịch,Phòng giao dịch,"Thứ 2-6: Sáng 7h30-11h30, Chiều 13h-17h00",10.366350173950195,106.02269744873047,,
PGD Thành Trung,"Số 50, Phố Thành Trung, Thị trấn Trâu Quỳ, Huyện Gia Lâm, TP Hà Nội",Phòng giao dịch,Phòng giao dịch,"Thứ 2-6: Sáng 7h30-11h30, Chiều 13h-17h00",21.010000228881836,105.93599700927734,,
PGD Cai Lậy,"Số 218, Đường 3 thang 2 KP1, Phường 1, TX Cai Lậy, Tỉnh Tiền Giang",Phòng giao dịch,Phòng giao dịch,"Thứ 2-6: Sáng 7h30-11h30, Chiều 13h-17h00",10.405059814453125,106.11869812011719,,
PGD Thanh Xuân Bắc,"Tầng 1, Toà nhà chung cư Ban Cơ yếu Chính phủ, Phường Nhân Chính, Quận Thanh Xuân, TP Hà Nội",Phòng giao dịch,Phòng giao dịch,"Thứ 2-6: Sáng 7h30-11h30, Chiều 13h-17h00",21.000099182128906,105.79830169677734,,
PGD Thanh Xuân Trung,"Lô D4, Khu phức hợp Madarin Garden, Khu đô thị Đông Nam Trần Duy Hưng, Đường Hoàng Minh Giám, Phường Trung Hoà, Quận Cầu Giấy, TP Hà Nội",Phòng giao dịch,Phòng giao dịch,"Thứ 2-6: Sáng 7h30-11h30, Chiều 13h-17h00",21.00480079650879,105.79850006103516,,
PGD Tháp Hà Nội,"Gian hàng số 02, tầng trệt Tháp Hà Nội, số 49, Đường Hai Bà Trưng, Phường Trần Hưng Đạo, Quận Hoàn Kiếm, TP Hà Nội",Phòng giao dịch,Phòng giao dịch,"Thứ 2-6: Sáng 7h30-11h30, Chiều 13h-17h00",21.026060104370117,105.84590148925781,,
PGD Hòn La,"Quốc lộ 1A, Xã Quảng Phú, Huyện Quảng Trạch, Quảng Bình",Phòng giao dịch,Phòng giao dịch,"Thứ 2-6: Sáng 7h30-11h30, Chiều 13h-16h30",17.88882064819336,106.44889831542969,,
PGD The Manor,"B003, Toà nhà The Manor, Khu đô thị Mỹ Đình - Mễ Trì, Phường Mỹ Đình 1, Quận Nam Từ Liêm, TP Hà Nội",Phòng giao dịch,Phòng giao dịch,"Thứ 2-6: Sáng 8h00-12h00, Chiều 13h30-16h30",21.014469146728516,105.77580261230469,,
PGD Thị Trấn Liên Quan,"Khu Phố, Thị trấn Liên Quan, Huyện Thạch Thất, TP Hà Nội",Phòng giao dịch,Phòng giao dịch,"Thứ 2-6: Sáng 7h30-12h00, Chiều 13h30-16h30",21.0610408782959,105.57640075683594,,
PGD Nam Lý,"Số 29, Đường Phan Đình Phùng, Phường Bắc Lý, Thành phố Đồng Hới, Quảng Bình",Phòng giao dịch,Phòng giao dịch,"Thứ 2-6: Sáng 7h30-11h30, Chiều 13h-17h00",17.47117042541504,106.59290313720703,,
PGD Thủ Lệ,"Tầng 1, Tòa nhà Hong Kong Tower, số 243A, Đường Đê La Thành, Phường Láng Thượng, Quận Đống Đa, TP Hà Nội",Phòng giao dịch,Phòng giao dịch,"Thứ 2-6: Sáng 7h30-11h30, Chiều 13h-17h00",21.027450561523438,105.80449676513672,,
PGD KCN Mỹ Tho,"Lô 33, Tỉnh lộ 864, Xã Trung An, Thành phố Mỹ Tho, Tiền Giang",Phòng giao dịch,Phòng giao dịch,"Thứ 2-6: Sáng 7h30-11h30, Chiều 13h-17h00",10.344639778137207,106.32340240478516,,
PGD Nguyễn Trãi,"Số 3, Đường Nguyễn Trãi, Phường Đồng Hải, Đồng Hới, Quảng Bình",Phòng giao dịch,Phòng giao dịch,"Thứ 2-6: Sáng 7h30-11h30, Chiều 13h-17h00",17.466039657592773,106.62519836425781,,
PGD Thuốc Bắc,"Số 96, Phố Thuốc Bắc, Phường Hàng Bồ, Quận Hoàn Kiếm, TP Hà Nội",Phòng giao dịch,Phòng giao dịch,"Thứ 2-6: Sáng 7h30-11h30, Chiều 13h-17h00",21.035369873046875,105.84850311279297,,
PGD Quán Hàu,"Tiểu khu 4, Thị trấn Quán Hàu, Huyện Quảng Ninh, Quảng Bình",Phòng giao dịch,Phòng giao dịch,"Thứ 2-6: Sáng 7h30-11h30, Chiều 13h-17h00",17.404699325561523,106.64309692382812,,
PGD Trần Hưng Đạo,"Số 994-996A, Đường Trần Hưng Đạo, Phường 5, TP Mỹ Tho, Tỉnh Tiền Giang",Phòng giao dịch,Phòng giao dịch,"Thứ 2-6: Sáng 7h30-11h30, Chiều 13h-17h00",10.355690002441406,106.35690307617188,,
PGD Thanh Hà,"Quốc lộ 1A - Thanh Khê, Xã Thanh Trạch, Huyện Bố Trạch, Quảng Bình",Phòng giao dịch,Phòng giao dịch,"Thứ 2-6: Sáng 7h30-11h30, Chiều 13h-16h30",17.69441032409668,106.4822006225586,,
PGD Tuyên Hoá,"Quốc lộ 12A - Thanh Trúc, Xã Tiến Hoá, Huyện Tuyên Hoá, Quảng Bình",Phòng giao dịch,Phòng giao dịch,"Thứ 2-6: Sáng 7h30-11h30, Chiều 13h-16h30",17.80038070678711,106.23069763183594,,
PGD Đường 9,"Số 331A, Quốc lộ 9, Phường 3, Thành phố Đông Hà, Quảng Trị",Phòng giao dịch,Phòng giao dịch,"Thứ 2-6: Sáng 7h30-11h30, Chiều 13h-17h00",16.81732940673828,107.08540344238281,,
PGD Tôn Đức Thắng,"Số 229, Đường Tôn Đức Thắng, Phường Hàng Bột,, Quận Đống Đa, TP Hà Nội",Phòng giao dịch,Phòng giao dịch,"Thứ 2-6: Sáng 7h30-11h30, Chiều 13h-17h00",21.021270751953125,105.831298828125,,
PGD Nam Đông Hà,"Số 62, Đường Lý Thường Kiệt, Phường Đông Lương, Thành phố Đông Hà, Quảng Trị",Phòng giao dịch,Phòng giao dịch,"Thứ 2-6: Sáng 7h30-11h30, Chiều 13h-17h00",16.803329467773438,107.11419677734375,,
PGD Tôn Thất Tùng,"Tòa nhà Artemis, Số 3, Đường Lê Trọng Tấn, Phường Khương Mai, Quận Thanh Xuân, TP Hà Nội",Phòng giao dịch,Phòng giao dịch,"Thứ 2-6: Sáng 7h30-11h30, Chiều 13h-17h00",21.000450134277344,105.82890319824219,,
PGD Trần Đại Nghĩa,"Tầng 1 và 2 số 94 đường Trần Đại Nghĩa, Phường Đồng Tâm, Quận Hai Bà Trưng, TP Hà Nội",Phòng giao dịch,Phòng giao dịch,"Thứ 2-6: Sáng 7h30-11h30, Chiều 13h-17h00",21.002140045166016,105.84380340576172,,
PGD Vĩnh Linh,"Khóm Hữu Nghị, Thị trấn Hồ Xá, Huyện Vĩnh Linh, Quảng Trị",Phòng giao dịch,Phòng giao dịch,"Thứ 2-6: Sáng 7h30-11h30, Chiều 13h-17h00",17.058189392089844,107.01619720458984,,
PGD An Đông,"Số 70, Đường Trường Chinh, Phường Xuân Phú, Quận Thuận Hóa, Thành phố Huế",Phòng giao dịch,Phòng giao dịch,"Thứ 2-6: Sáng 7h30-11h30, Chiều 13h-17h00",16.460969924926758,107.60359954833984,,
PGD Trần Quý Kiên,"Toà nhà số 1, Đường Trần Quý Kiên, Phường Dịch Vọng, Quận Cầu Giấy, TP Hà Nội",Phòng giao dịch,Phòng giao dịch,"Thứ 2-6: Sáng 7h30-11h30, Chiều 13h-17h00",21.03605079650879,105.79149627685547,,
PGD Phú Bài,"Số 1070, Đường Nguyễn Tất Thành, Phường Phú Bài, Thị xã Hương Thuỷ, Thành phố Huế",Phòng giao dịch,Phòng giao dịch,"Thứ 2-6: Sáng 7h30-11h30, Chiều 13h-17h00",16.400550842285156,107.68840026855469,,
PGD Phú Lộc,"Thôn Nam Phổ Hạ, xã Lộc An, huyện Phú Lộc, thành phố Huế",Phòng giao dịch,Phòng giao dịch,"Thứ 2-6: Sáng 7h30-11h30, Chiều 13h-17h00",16.335460662841797,107.76950073242188,,
PGD Trung Sơn Trầm,"Khu Phố 6, Phường Trung Sơn Trầm, Thị xã Sơn Tây, TP Hà Nội",Phòng giao dịch,Phòng giao dịch,"Thứ 2-6: Sáng 7h30-12h00, Chiều 13h30-16h30",21.1156005859375,105.49579620361328,,
PGD Tân Bình,"Số 08, Phố Hàn Thuyên, Phường Tân Dân, TP Việt Trì, Tỉnh Phú Thọ",Phòng giao dịch,Phòng giao dịch,"Thứ 2-6: Sáng 7h30-11h30, Chiều 13h-17h00",21.324050903320312,105.4009017944336,,
PGD Cẩm Lệ,"Số 282, đường Cách Mạng Tháng Tám, Phường Khuê Trung, Quận Cẩm Lệ, TP Đà Nẵng",Phòng giao dịch,Phòng giao dịch,"Thứ 2-6: Sáng 7h30-11h30, Chiều 13h30-16h30",16.01719093322754,108.2051010131836,,
PGD Chính Gián,"Số 177, Đường Điện Biên Phủ, Phường Chính Gián, Quận Thanh Khê, TP Đà Nẵng",Phòng giao dịch,Phòng giao dịch,"Thứ 2-6: Sáng 7h30-11h30, Chiều 13h30-16h30",16.065340042114258,108.1980972290039,,
PGD Tuệ Tĩnh,"Số 82, Phố Tuệ Tĩnh, Phường Nguyễn Du, Quận Hai Bà Trưng, TP Hà Nội",Phòng giao dịch,Phòng giao dịch,"Thứ 2-6: Sáng 7h30-11h30, Chiều 13h-17h00",21.015119552612305,105.84989929199219,,
PGD Văn Phú,"Số 280 và 281, Dự án Lacasta Văn Phú, Phường Phú La, Quận Hà Đông, TP Hà Nội",Phòng giao dịch,Phòng giao dịch,"Thứ 2-6: Sáng 8h-11h30, Chiều 13h30-16h30",20.957860946655273,105.76850128173828,,
PGD Văn Quán,"Tầng 1, toà New Skyline, lô CC2, KĐT Văn Quán, Phố Nguyễn Khuyến, Phường Văn Quán, Quận Hà Đông, TP Hà Nội",Phòng giao dịch,Phòng giao dịch,"Thứ 2-6: Sáng 8h-11h30, Chiều 13h30-16h30",20.976299285888672,105.78919982910156,,
PGD Vân Trì,"Số 25-27, Phố Vân Trì, Xã Vân Nội, Huyện Đông Anh, TP Hà Nội",Phòng giao dịch,Phòng giao dịch,"Thứ 2-6: Sáng 8h00-11h30, Chiều 13h00-17h00",21.1801700592041,105.78910064697266,,
PGD Vạn Xuân,"Mặt Đường 472, Khu 6, Thị trấn Trạm Trôi, Huyện Hoài Đức, TP Hà Nội",Phòng giao dịch,Phòng giao dịch,"Thứ 2-6: Sáng 7h30-11h30, Chiều 13h-17h00",21.068479537963867,105.7072982788086,,
PGD VietTower,"Số 01, Phố Thái Hà, Phường Trung Liệt, Quận Đống Đa, TP Hà Nội",Phòng giao dịch,Phòng giao dịch,"Thứ 2-6: Sáng 7h30-11h30, Chiều 13h-17h00",21.014039993286133,105.82009887695312,,
PGD Hồng Ngự,"Số 01, Đường Lê Lai, Phường An Thạnh, Thành phố Hồng Ngự, Đồng Tháp",Phòng giao dịch,Phòng giao dịch,"Thứ 2-6: Sáng 7h30-12h00, Chiều 13h30-17h00",10.808670043945312,105.34700012207031,,
PGD Vương Thừa Vũ,"Số 27 Huỳnh Thúc Kháng, Phường Láng Hạ, Quận Đống Đa, TP Hà Nội",Phòng giao dịch,Phòng giao dịch,"Thứ 2-6: Sáng 7h30-11h30, Chiều 13h-17h00",21.0180606842041,105.8115005493164,,
PGD West Lake,"BT7.SH180.17 LÔ SỐ K7TT1 Khu đô thị Tây Hồ Tây, Phường Xuân La, Quận Tây Hồ, TP Hà Nội",Phòng giao dịch,Phòng giao dịch,"Thứ 2-6: Sáng 7h30-11h30, Chiều 13h-17h00",21.052000045776367,105.79810333251953,,
PGD Xa La,"Số 1, Liền kề 6, KĐTM Xa La, Phường Phúc La, Quận Hà Đông, TP Hà Nội",Phòng giao dịch,Phòng giao dịch,"Thứ 2-6: Sáng 8h00-11h30, Chiều 13h-17h00",20.963529586791992,105.79129791259766,,
PGD Cẩm Phô,"Số 156-158, Đường Nguyễn Trường Tộ, Phường Cẩm Phô, Thành phố Hội An, Quảng Nam",Phòng giao dịch,Phòng giao dịch,"Thứ 2-6: Sáng 7h30-11h30, Chiều 13h-17h00",15.88029956817627,108.32890319824219,,
PGD Xuân Khanh,"Số 282, Phố Xuân Khanh, Phường Xuân Khanh, Thị xã Sơn Tây, TP Hà Nội",Phòng giao dịch,Phòng giao dịch,"Thứ 2-6: Sáng 7h30-12h00, Chiều 13h30-16h30",21.1114501953125,105.4645004272461,,
PGD Mỹ Thọ,"Số 166, Đường Nguyễn Trãi, khóm Mỹ Tây, Thị trấn Mỹ Thọ, Huyện Cao Lãnh, Tỉnh Đồng Tháp",Phòng giao dịch,Phòng giao dịch,"Thứ 2-6: Sáng 7h30-12h00, Chiều 13h30-17h00",10.443309783935547,105.6990966796875,,
PGD Cột 3,"Số 414, Đường Nguyễn Văn Cừ, Phường Hồng Hải, Thành phố Hạ Long, Quảng Ninh",Phòng giao dịch,Phòng giao dịch,"Thứ 2-6: Sáng 7h30-11h30, Chiều 13h-17h00",20.94951057434082,107.10659790039062,,
PGD Xuân La,"LKC18-19 Dự án khu nhà ở thấp tầng A1TT1, Phường Xuân Tảo, Quận Bắc Từ Liêm, TP Hà Nội",Phòng giao dịch,Phòng giao dịch,"Thứ 2-6: Sáng 7h30-11h30, Chiều 13h-17h00",21.062759399414062,105.79910278320312,,
PGD Điện Bàn,"Số 83, Đường Mẹ Thứ, Phường Vĩnh Điện, Thị xã Điện Bàn, Quảng Nam",Phòng giao dịch,Phòng giao dịch,"Thứ 2-6: Sáng 7h30-11h30, Chiều 13h-17h00",15.888959884643555,108.24949645996094,,
PGD Cột 8,"Số 679-681, Đường Nguyễn Văn Cừ, Phường Hồng Hà, Thành phố Hạ Long, Quảng Ninh",Phòng giao dịch,Phòng giao dịch,"Thứ 2-6: Sáng 7h30-11h30, Chiều 13h-17h00",20.951019287109375,107.13379669189453,,
PGD Yên Lãng,"Số 3, Phố Yên Lãng, Phường Trung Liệt, Quận Đống Đa, TP Hà Nội",Phòng giao dịch,Phòng giao dịch,"Thứ 2-6: Sáng 7h30-11h30, Chiều 13h-17h00",21.011829376220703,105.81719970703125,,
PGD Tam Nông,"Số 28, Đường Huỳnh Công Sính, khóm 2, Thị trấn Tràm Chim, Huyện Tam Nông, Đồng Tháp",Phòng giao dịch,Phòng giao dịch,"Thứ 2-6: Sáng 7h30-12h00, Chiều 13h30-17h00",10.671859741210938,105.56099700927734,,
PGD Điện Nam - Điện Ngọc,"KCN Điện Nam - Điện Ngọc, Xã Điện Ngọc, Thị xã Điện Bàn, Quảng Nam",Phòng giao dịch,Phòng giao dịch,"Thứ 2-6: Sáng 7h30-11h30, Chiều 13h-17h00",15.955619812011719,108.25489807128906,,
PGD Yết Kiêu,"Toà nhà HIWAY Supercenter, Số 08, Đường Quang Trung, Phường Quang Trung, Quận Hà Đông, TP Hà Nội",Phòng giao dịch,Phòng giao dịch,"Thứ 2-6: Sáng 8h00-11h30, Chiều 13h30-16h30",20.972639083862305,105.77770233154297,,
PGD Duy Xuyên,"438 Hùng Vương, Thị trấn Nam Phước, huyện Duy Xuyên, Quảng Nam",Phòng giao dịch,Phòng giao dịch,"Thứ 2-6: Sáng 7h30-11h30, Chiều 13h-17h00",15.828780174255371,108.26029968261719,,
PGD Đầm Hà,"Số 25 phố Lê Lương, thị trấn Đầm Hà, Huyện Đầm Hà, Tỉnh Quảng Ninh",Phòng giao dịch,Phòng giao dịch,"Thứ 2-6: Sáng 7h30-11h30, Chiều 13h-17h00",21.3511905670166,107.5958023071289,,
PGD Thanh Bình,"Số 555, Quốc lộ 30, Thị trấn Thanh Bình, Huyện Thanh Bình, Đồng Tháp",Phòng giao dịch,Phòng giao dịch,"Thứ 2-6: Sáng 7h30-12h00, Chiều 13h30-17h00",10.55424976348877,105.49749755859375,,
PGD Tháp Mười,"Số 95, Đường Gò Tháp, Khóm 3, Thị trấn Mỹ An, Huyện Tháp Mười, Đồng Tháp",Phòng giao dịch,Phòng giao dịch,"Thứ 2-6: Sáng 7h30-12h00, Chiều 13h30-17h00",10.52672004699707,105.84369659423828,,
PGD Bình Sơn,"Số 389, Đường Phạm Văn Đồng, Thị trấn Châu Ổ, Huyện Bình Sơn, Quảng Ngãi",Phòng giao dịch,Phòng giao dịch,"Thứ 2-6: Sáng 7h30-11h30, Chiều 13h-17h00",15.29761028289795,108.760498046875,,
PGD An Khánh,"04-06 Lương Định Của, Phường An Phú, TP Thủ Đức, TP Hồ Chí Minh",Phòng giao dịch,Phòng giao dịch,"Thứ 2-6: Sáng 7h30-11h30, Chiều 13h-16h30",10.791210174560547,106.74530029296875,,
PGD An Phú,"Số 13B, Đường Nguyễn Thị Định, Phường An Phú, TP Thủ Đức, TP Hồ Chí Minh",Phòng giao dịch,Phòng giao dịch,"Thứ 2-6: Sáng 7h30-11h30, Chiều 13h-17h00",10.790160179138184,106.75430297851562,,
PGD Hải Hà,"123 Phan Đình Phùng, Thị trấn Quảng Hà, Huyện Hải Hà, Tỉnh Quảng Ninh",Phòng giao dịch,Phòng giao dịch,"Thứ 2-6: Sáng 7h30-11h30, Chiều 13h-17h00",21.450159072875977,107.75330352783203,,
PGD Hùng Vương,"Số 191-193, Đường Hùng Vương, Phường Trần Phú, Thành phố Quảng Ngãi, Quảng Ngãi",Phòng giao dịch,Phòng giao dịch,"Thứ 2-6: Sáng 7h30-11h30, Chiều 13h-17h00",15.121749877929688,108.79299926757812,,
PGD Âu Cơ,"Số 683A, Đường Âu Cơ, Phường Tân Thành, Quận Tân Phú, TP Hồ Chí Minh",Phòng giao dịch,Phòng giao dịch,"Thứ 2-6: Sáng 8h00-11h30, Chiều 13h-16h30",10.789159774780273,106.64019775390625,,
PGD Bắc Hải,"Số 302, Đường Tô Hiến Thành, Phường 15, Quận 10, TP Hồ Chí Minh",Phòng giao dịch,Phòng giao dịch,"Thứ 2-6: Sáng 7h30-11h30, Chiều 13h-17h00",10.776969909667969,106.66419982910156,,
PGD Trương Quang Trọng,"Số 301, Đường Nguyễn Văn Linh, Phường Trương Quang Trọng, Thành phố Quảng Ngãi, Quảng Ngãi",Phòng giao dịch,Phòng giao dịch,"Thứ 2-6: Sáng 7h30-11h30, Chiều 13h-17h00",15.154760360717773,108.79650115966797,,
PGD Bàn Cờ,"Số 81, Đường Cao Thắng, Phường 3, Quận 3, TP Hồ Chí Minh",Phòng giao dịch,Phòng giao dịch,"Thứ 2-6: Sáng 7h30-11h30, Chiều 13h-17h00",10.77245044708252,106.6792984008789,,
PGD Ka Long,"Số 259B-261B, Đường Hùng Vương, Phường Ninh Dương, TP Móng Cái, Tỉnh Quảng Ninh",Phòng giao dịch,Phòng giao dịch,"Thứ 2-6: Sáng 7h30-11h30, Chiều 13h-17h00",21.53424072265625,107.95249938964844,,
PGD Bình Đăng,"Số 483 đường Quốc lộ 50, Xã Bình Hưng, Huyện Bình Chánh, TP Hồ Chí Minh",Phòng giao dịch,Phòng giao dịch,"Thứ 2-6: Sáng 7h30-11h30, Chiều 13h-17h00",10.730770111083984,106.65619659423828,,
PGD Lê Thánh Tông,"Số169 A4 - 169 A5, Đường Lê Thánh Tông, Phường Hồng Gai, Thành phố Hạ Long, Quảng Ninh",Phòng giao dịch,Phòng giao dịch,"Thứ 2-6: Sáng 7h30-11h30, Chiều 13h-17h00",20.950439453125,107.07530212402344,,
PGD Bình Khánh,"Số 37, Đường Song Hành, Phường An Phú, TP Thủ Đức, TP Hồ Chí Minh",Phòng giao dịch,Phòng giao dịch,"Thứ 2-6: Sáng 7h30-11h30, Chiều 13h-17h00",10.799750328063965,106.73639678955078,,
PGD An Biên,"Số 553, Quốc lộ 63, khu phố 2, Thị trấn Thứ ba, Huyện An Biên, Kiên Giang",Phòng giao dịch,Phòng giao dịch,"Thứ 2-6: Sáng 7h15-11h15, Chiều 13h-16h30",10.017109870910645,105.081298828125,,
PGD Bình Triệu,"Số 246, Quốc lộ 13, Phường Hiệp Bình Chánh, Thành phố Thủ Đức, Thành phố Hồ Chí Minh",Phòng giao dịch,Phòng giao dịch,"Thứ 2-6: Sáng 7h30-11h30, Chiều 13h-17h00",10.834010124206543,106.71420288085938,,
PGD Chánh Hưng,"Số 349-351, Đường Phạm Hùng, Xã Bình Hưng, Huyện Bình Chánh, TP Hồ Chí Minh",Phòng giao dịch,Phòng giao dịch,"Thứ 2-6: Sáng 7h30-11h30, Chiều 13h-17h00",10.734330177307129,106.67340087890625,,
PGD Cộng Hoà,"Vincom Cộng Hòa, Số 15-17, Đường Cộng Hoà, Phường 4, Quận Tân Bình, TP Hồ Chí Minh",Phòng giao dịch,Phòng giao dịch,Thứ 2-6: 9h00-16h30,10.80072021484375,106.658203125,,
PGD Tiên Yên,"Tầng 1 tòa nhà 7 tầng, Phố Thống Nhất, Thị trấn Tiên Yên, Huyện Tiên Yên, Quảng Ninh",Phòng giao dịch,Phòng giao dịch,"Thứ 2-6: Sáng 7h30-11h30, Chiều 13h-17h00",21.33102035522461,107.39769744873047,,
PGD Đầm Sen,"Số 439-441, Đường Lạc Long Quân, Phường 5, Quận 11, TP Hồ Chí Minh",Phòng giao dịch,Phòng giao dịch,"Thứ 2-6: Sáng 7h30-11h30, Chiều 13h-17h00",10.774060249328613,106.64739990234375,,
PGD Dân Chủ,"Tầng trệt Tòa nhà Đồng Nhân, số 90, đường Nguyễn Đình Chiểu, Phường Đa Kao, Quận 1, TP Hồ Chí Minh",Phòng giao dịch,Phòng giao dịch,"Thứ 2-6: Sáng 7h30-11h30, Chiều 13h-17h00",10.788009643554688,106.69869995117188,,
PGD Dân Sinh,"Số 1, Đường Đinh Lễ, Phường 12, Quận 4, TP Hồ Chí Minh",Phòng giao dịch,Phòng giao dịch,"Thứ 2-6: Sáng 7h30-11h30, Chiều 13h-17h00",10.763879776000977,106.70549774169922,,
PGD Đồng Khánh,"Số 372, Đường Hồng Bàng, Phường 16, Quận 11, TP Hồ Chí Minh",Phòng giao dịch,Phòng giao dịch,"Thứ 2-6: Sáng 7h30-11h30, Chiều 13h-17h00",10.75393009185791,106.65039825439453,,
PGD Mê Kông,"Số 60-62, Đường Phan Đình Phùng, Phường Tân An, Quận Ninh Kiều, TP Cần Thơ",Phòng giao dịch,Phòng giao dịch,"Thứ 2-6: Sáng 7h30-11h30, Chiều 13h-17h00",10.031129837036133,105.7864990234375,,
PGD Tiền Châu,"Khu 4, Phường Tiền Châu, TP Phúc Yên, Tỉnh Vĩnh Phúc",Phòng giao dịch,Phòng giao dịch,"Thứ 2-6: Sáng 7h30-11h30, Chiều 13h-17h00",21.232580184936523,105.689697265625,,
PGD Gò Vấp,"Số 157, Đường Quang Trung, Phường 10, Quận Gò Vấp, TP Hồ Chí Minh",Phòng giao dịch,Phòng giao dịch,"Thứ 2-6: Sáng 8h00-11h30, Chiều 13h-16h30",10.828069686889648,106.67489624023438,,
PGD Nam Cần Thơ,"Số 99, Võ Văn  Kiệt, Phường An Hòa, Quận Ninh Kiều, TP Cần Thơ",Phòng giao dịch,Phòng giao dịch,"Thứ 2-6: Sáng 7h30-11h30, Chiều 13h-17h00",10.045350074768066,105.76210021972656,,
PGD Nguyễn An Ninh,"Số 53-53A, Đường Võ Văn Tần, Phường Tân An, Quận Ninh Kiều, TP Cần Thơ",Phòng giao dịch,Phòng giao dịch,"Thứ 2-6: Sáng 7h30-11h30, Chiều 13h-17h00",10.032360076904297,105.78559875488281,,
PGD Ô Môn,"Khu 11, Quốc lộ 91, Phường Châu Văn Liêm, Quận Ô Môn, TP Cần Thơ",Phòng giao dịch,Phòng giao dịch,"Thứ 2-6: Sáng 7h30-11h30, Chiều 13h-17h00",10.10929012298584,105.62439727783203,,
PGD Xuân Hoà,"Đường Nguyễn Văn Linh, Phường Xuân Hoà, Thành phố Phúc Yên, Vĩnh Phúc",Phòng giao dịch,Phòng giao dịch,"Thứ 2-6: Sáng 7h30-11h30, Chiều 13h-17h00",21.278669357299805,105.72889709472656,,
PGD Hoàng Diệu,"Số 288 Bến Vân Đồn, Phường 02, Quận 4, TP Hồ Chí Minh",Phòng giao dịch,Phòng giao dịch,"Thứ 2-6: Sáng 7h30-11h30, Chiều 13h-17h00",10.75846004486084,106.69409942626953,,
PGD Bình Tân,"Số 312, Đường Dã Tượng, Phường Vĩnh Nguyên, Thành phố Nha Trang, Khánh Hoà",Phòng giao dịch,Phòng giao dịch,"Thứ 2-6: Sáng 7h30-11h30, Chiều 13h-17h00",12.216910362243652,109.19830322265625,,
PGD Cam Ranh,"Số 156, Đường 22 tháng 8, Phường Cam Thuận, Thành phố Cam Ranh, Khánh Hoà",Phòng giao dịch,Phòng giao dịch,"Thứ 2-6: Sáng 7h30-11h30, Chiều 13h-17h00",11.916279792785645,109.14739990234375,,
PGD Trung Kiên,"Khu vực Phụng Thạnh 2, Phường Trung Kiên, Quận Thốt Nốt, TP Cần Thơ",Phòng giao dịch,Phòng giao dịch,"Thứ 2-6: Sáng 7h30-11h30, Chiều 13h-17h00",10.260869979858398,105.54280090332031,,
PGD Hưng Phú,"835-835A đường Tạ Quang Bửu, Phuờng 5, Quận 8, TP Hồ Chí Minh",Phòng giao dịch,Phòng giao dịch,"Thứ 2-6: Sáng 7h30-11h30, Chiều 13h-17h00",10.73563003540039,106.66840362548828,,
PGD Ninh Hoà,"Số 525, Đường Trần Quý Cáp, Phường Ninh Hiệp, Thị xã Ninh Hoà, Khánh Hoà",Phòng giao dịch,Phòng giao dịch,"Thứ 2-6: Sáng 7h30-11h30, Chiều 13h-16h30",12.491629600524902,109.12590026855469,,
PGD Đại Phúc,"Toà nhà Diamond, Trung tâm Thương mại, khách sạn, văn phòng và căn hộ để bán tại Đường Kinh Dương Vương, Phường Vũ Ninh, Thành phố Bắc Ninh, Bắc Ninh",Phòng giao dịch,Phòng giao dịch,"Thứ 2-6: Sáng 7h30-11h30, Chiều 13h-17h00",21.188140869140625,106.07640075683594,,
PGD Khánh Hội,"Số 211, Đường Khánh Hội, Phường 3, Quận 4, TP Hồ Chí Minh",Phòng giao dịch,Phòng giao dịch,"Thứ 2-6: Sáng 7h30-11h30, Chiều 13h-17h00",10.758119583129883,106.69950103759766,,
